[{"airport_id":"1","name":"Goroka","city":"Goroka","country":"Papua New Guinea","iata_faa":"GKA","iaco":"AYGA","latitude":"-6.081689","longitude":"145.391881","altitude":"5282","zone":"10","dst":"U"},{"airport_id":"2","name":"Madang","city":"Madang","country":"Papua New Guinea","iata_faa":"MAG","iaco":"AYMD","latitude":"-5.207083","longitude":"145.7887","altitude":"20","zone":"10","dst":"U"},{"airport_id":"3","name":"Mount Hagen","city":"Mount Hagen","country":"Papua New Guinea","iata_faa":"HGU","iaco":"AYMH","latitude":"-5.826789","longitude":"144.295861","altitude":"5388","zone":"10","dst":"U"},{"airport_id":"4","name":"Nadzab","city":"Nadzab","country":"Papua New Guinea","iata_faa":"LAE","iaco":"AYNZ","latitude":"-6.569828","longitude":"146.726242","altitude":"239","zone":"10","dst":"U"},{"airport_id":"5","name":"Port Moresby Jacksons Intl","city":"Port Moresby","country":"Papua New Guinea","iata_faa":"POM","iaco":"AYPY","latitude":"-9.443383","longitude":"147.22005","altitude":"146","zone":"10","dst":"U"},{"airport_id":"6","name":"Wewak Intl","city":"Wewak","country":"Papua New Guinea","iata_faa":"WWK","iaco":"AYWK","latitude":"-3.583828","longitude":"143.669186","altitude":"19","zone":"10","dst":"U"},{"airport_id":"7","name":"Narsarsuaq","city":"Narssarssuaq","country":"Greenland","iata_faa":"UAK","iaco":"BGBW","latitude":"61.160517","longitude":"-45.425978","altitude":"112","zone":"-3","dst":"E"},{"airport_id":"8","name":"Nuuk","city":"Godthaab","country":"Greenland","iata_faa":"GOH","iaco":"BGGH","latitude":"64.190922","longitude":"-51.678064","altitude":"283","zone":"-3","dst":"E"},{"airport_id":"9","name":"Sondre Stromfjord","city":"Sondrestrom","country":"Greenland","iata_faa":"SFJ","iaco":"BGSF","latitude":"67.016969","longitude":"-50.689325","altitude":"165","zone":"-3","dst":"E"},{"airport_id":"10","name":"Thule Air Base","city":"Thule","country":"Greenland","iata_faa":"THU","iaco":"BGTL","latitude":"76.531203","longitude":"-68.703161","altitude":"251","zone":"-4","dst":"E"},{"airport_id":"11","name":"Akureyri","city":"Akureyri","country":"Iceland","iata_faa":"AEY","iaco":"BIAR","latitude":"65.659994","longitude":"-18.072703","altitude":"6","zone":"0","dst":"N"},{"airport_id":"12","name":"Egilsstadir","city":"Egilsstadir","country":"Iceland","iata_faa":"EGS","iaco":"BIEG","latitude":"65.283333","longitude":"-14.401389","altitude":"76","zone":"0","dst":"N"},{"airport_id":"13","name":"Hornafjordur","city":"Hofn","country":"Iceland","iata_faa":"HFN","iaco":"BIHN","latitude":"64.295556","longitude":"-15.227222","altitude":"24","zone":"0","dst":"N"},{"airport_id":"14","name":"Husavik","city":"Husavik","country":"Iceland","iata_faa":"HZK","iaco":"BIHU","latitude":"65.952328","longitude":"-17.425978","altitude":"48","zone":"0","dst":"N"},{"airport_id":"15","name":"Isafjordur","city":"Isafjordur","country":"Iceland","iata_faa":"IFJ","iaco":"BIIS","latitude":"66.058056","longitude":"-23.135278","altitude":"8","zone":"0","dst":"N"},{"airport_id":"16","name":"Keflavik International Airport","city":"Keflavik","country":"Iceland","iata_faa":"KEF","iaco":"BIKF","latitude":"63.985","longitude":"-22.605556","altitude":"171","zone":"0","dst":"N"},{"airport_id":"17","name":"Patreksfjordur","city":"Patreksfjordur","country":"Iceland","iata_faa":"PFJ","iaco":"BIPA","latitude":"65.555833","longitude":"-23.965","altitude":"11","zone":"0","dst":"N"},{"airport_id":"18","name":"Reykjavik","city":"Reykjavik","country":"Iceland","iata_faa":"RKV","iaco":"BIRK","latitude":"64.13","longitude":"-21.940556","altitude":"48","zone":"0","dst":"N"},{"airport_id":"19","name":"Siglufjordur","city":"Siglufjordur","country":"Iceland","iata_faa":"SIJ","iaco":"BISI","latitude":"66.133333","longitude":"-18.916667","altitude":"10","zone":"0","dst":"N"},{"airport_id":"20","name":"Vestmannaeyjar","city":"Vestmannaeyjar","country":"Iceland","iata_faa":"VEY","iaco":"BIVM","latitude":"63.424303","longitude":"-20.278875","altitude":"326","zone":"0","dst":"N"},{"airport_id":"21","name":"Sault Ste Marie","city":"Sault Sainte Marie","country":"Canada","iata_faa":"YAM","iaco":"CYAM","latitude":"46.485001","longitude":"-84.509445","altitude":"630","zone":"-5","dst":"A"},{"airport_id":"22","name":"Winnipeg St Andrews","city":"Winnipeg","country":"Canada","iata_faa":"YAV","iaco":"CYAV","latitude":"50.056389","longitude":"-97.0325","altitude":"760","zone":"-6","dst":"A"},{"airport_id":"23","name":"Shearwater","city":"Halifax","country":"Canada","iata_faa":"YAW","iaco":"CYAW","latitude":"44.639721","longitude":"-63.499444","altitude":"167","zone":"-4","dst":"A"},{"airport_id":"24","name":"St Anthony","city":"St. Anthony","country":"Canada","iata_faa":"YAY","iaco":"CYAY","latitude":"51.391944","longitude":"-56.083056","altitude":"108","zone":"-4","dst":"A"},{"airport_id":"25","name":"Tofino","city":"Tofino","country":"Canada","iata_faa":"YAZ","iaco":"CYAZ","latitude":"49.082222","longitude":"-125.7725","altitude":"80","zone":"-8","dst":"A"},{"airport_id":"26","name":"Kugaaruk","city":"Pelly Bay","country":"Canada","iata_faa":"YBB","iaco":"CYBB","latitude":"68.534444","longitude":"-89.808056","altitude":"56","zone":"-6","dst":"A"},{"airport_id":"27","name":"Baie Comeau","city":"Baie Comeau","country":"Canada","iata_faa":"YBC","iaco":"CYBC","latitude":"49.1325","longitude":"-68.204444","altitude":"71","zone":"-5","dst":"A"},{"airport_id":"28","name":"Bagotville","city":"Bagotville","country":"Canada","iata_faa":"YBG","iaco":"CYBG","latitude":"48.330555","longitude":"-70.996391","altitude":"522","zone":"-5","dst":"A"},{"airport_id":"29","name":"Baker Lake","city":"Baker Lake","country":"Canada","iata_faa":"YBK","iaco":"CYBK","latitude":"64.298889","longitude":"-96.077778","altitude":"59","zone":"-6","dst":"A"},{"airport_id":"30","name":"Campbell River","city":"Campbell River","country":"Canada","iata_faa":"YBL","iaco":"CYBL","latitude":"49.950832","longitude":"-125.270833","altitude":"346","zone":"-8","dst":"A"},{"airport_id":"31","name":"Brandon Muni","city":"Brandon","country":"Canada","iata_faa":"YBR","iaco":"CYBR","latitude":"49.91","longitude":"-99.951944","altitude":"1343","zone":"-6","dst":"A"},{"airport_id":"32","name":"Cambridge Bay","city":"Cambridge Bay","country":"Canada","iata_faa":"YCB","iaco":"CYCB","latitude":"69.108055","longitude":"-105.138333","altitude":"90","zone":"-7","dst":"A"},{"airport_id":"33","name":"Nanaimo","city":"Nanaimo","country":"Canada","iata_faa":"YCD","iaco":"CYCD","latitude":"49.052333","longitude":"-123.870167","altitude":"93","zone":"-8","dst":"A"},{"airport_id":"34","name":"Castlegar","city":"Castlegar","country":"Canada","iata_faa":"YCG","iaco":"CYCG","latitude":"49.296389","longitude":"-117.6325","altitude":"1624","zone":"-8","dst":"A"},{"airport_id":"35","name":"Miramichi","city":"Chatham","country":"Canada","iata_faa":"YCH","iaco":"CYCH","latitude":"47.007778","longitude":"-65.449167","altitude":"108","zone":"-4","dst":"A"},{"airport_id":"36","name":"Charlo","city":"Charlo","country":"Canada","iata_faa":"YCL","iaco":"CYCL","latitude":"47.990833","longitude":"-66.330278","altitude":"132","zone":"-4","dst":"A"},{"airport_id":"37","name":"Kugluktuk","city":"Coppermine","country":"Canada","iata_faa":"YCO","iaco":"CYCO","latitude":"67.816667","longitude":"-115.143889","altitude":"74","zone":"-7","dst":"A"},{"airport_id":"38","name":"Coronation","city":"Coronation","country":"Canada","iata_faa":"YCT","iaco":"CYCT","latitude":"52.075001","longitude":"-111.445278","altitude":"2595","zone":"-7","dst":"A"},{"airport_id":"39","name":"Chilliwack","city":"Chilliwack","country":"Canada","iata_faa":"YCW","iaco":"CYCW","latitude":"49.152779","longitude":"-121.93889","altitude":"32","zone":"-8","dst":"A"},{"airport_id":"40","name":"Clyde River","city":"Clyde River","country":"Canada","iata_faa":"YCY","iaco":"CYCY","latitude":"70.486111","longitude":"-68.516667","altitude":"87","zone":"-5","dst":"A"},{"airport_id":"41","name":"Fairmont Hot Springs","city":"Coral Harbour","country":"Canada","iata_faa":"YZS","iaco":"CYCZ","latitude":"64.193333","longitude":"-83.359444","altitude":"2661","zone":"-7","dst":"A"},{"airport_id":"42","name":"Dawson City","city":"Dawson","country":"Canada","iata_faa":"YDA","iaco":"CYDA","latitude":"64.043056","longitude":"-139.127778","altitude":"1215","zone":"-8","dst":"A"},{"airport_id":"43","name":"Burwash","city":"Burwash","country":"Canada","iata_faa":"YDB","iaco":"CYDB","latitude":"61.371111","longitude":"-139.040556","altitude":"2647","zone":"-8","dst":"A"},{"airport_id":"44","name":"Princeton","city":"Princeton","country":"Canada","iata_faa":"YDC","iaco":"CYDC","latitude":"49.468056","longitude":"-120.511389","altitude":"2298","zone":"-8","dst":"A"},{"airport_id":"45","name":"Deer Lake","city":"Deer Lake","country":"Canada","iata_faa":"YDF","iaco":"CYDF","latitude":"49.210833","longitude":"-57.391388","altitude":"72","zone":"-4","dst":"A"},{"airport_id":"46","name":"Dease Lake","city":"Dease Lake","country":"Canada","iata_faa":"YDL","iaco":"CYDL","latitude":"58.422222","longitude":"-130.032222","altitude":"2600","zone":"-8","dst":"A"},{"airport_id":"47","name":"Dauphin Barker","city":"Dauphin","country":"Canada","iata_faa":"YDN","iaco":"CYDN","latitude":"51.100834","longitude":"-100.0525","altitude":"999","zone":"-6","dst":"A"},{"airport_id":"48","name":"Dawson Creek","city":"Dawson Creek","country":"Canada","iata_faa":"YDQ","iaco":"CYDQ","latitude":"55.742333","longitude":"-120.183","altitude":"2148","zone":"-7","dst":"A"},{"airport_id":"49","name":"Edmonton Intl","city":"Edmonton","country":"Canada","iata_faa":"YEG","iaco":"CYEG","latitude":"53.309723","longitude":"-113.579722","altitude":"2373","zone":"-7","dst":"A"},{"airport_id":"50","name":"Arviat","city":"Eskimo Point","country":"Canada","iata_faa":"YEK","iaco":"CYEK","latitude":"61.094166","longitude":"-94.070833","altitude":"32","zone":"-6","dst":"A"},{"airport_id":"51","name":"Estevan","city":"Estevan","country":"Canada","iata_faa":"YEN","iaco":"CYEN","latitude":"49.210278","longitude":"-102.965833","altitude":"1905","zone":"-6","dst":"N"},{"airport_id":"52","name":"Edson","city":"Edson","country":"Canada","iata_faa":"YET","iaco":"CYET","latitude":"53.578888","longitude":"-116.465","altitude":"3041","zone":"-7","dst":"A"},{"airport_id":"53","name":"Eureka","city":"Eureka","country":"Canada","iata_faa":"YEU","iaco":"CYEU","latitude":"79.994722","longitude":"-85.814167","altitude":"256","zone":"-6","dst":"A"},{"airport_id":"54","name":"Inuvik Mike Zubko","city":"Inuvik","country":"Canada","iata_faa":"YEV","iaco":"CYEV","latitude":"68.304167","longitude":"-133.482778","altitude":"224","zone":"-7","dst":"A"},{"airport_id":"55","name":"Iqaluit","city":"Iqaluit","country":"Canada","iata_faa":"YFB","iaco":"CYFB","latitude":"63.75639","longitude":"-68.555832","altitude":"110","zone":"-5","dst":"A"},{"airport_id":"56","name":"Fredericton","city":"Fredericton","country":"Canada","iata_faa":"YFC","iaco":"CYFC","latitude":"45.868889","longitude":"-66.537222","altitude":"68","zone":"-4","dst":"A"},{"airport_id":"58","name":"Flin Flon","city":"Flin Flon","country":"Canada","iata_faa":"YFO","iaco":"CYFO","latitude":"54.678055","longitude":"-101.681667","altitude":"997","zone":"-6","dst":"A"},{"airport_id":"59","name":"Fort Resolution","city":"Fort Resolution","country":"Canada","iata_faa":"YFR","iaco":"CYFR","latitude":"61.180832","longitude":"-113.689722","altitude":"526","zone":"-7","dst":"A"},{"airport_id":"60","name":"Fort Simpson","city":"Fort Simpson","country":"Canada","iata_faa":"YFS","iaco":"CYFS","latitude":"61.760153","longitude":"-121.236525","altitude":"555","zone":"-7","dst":"A"},{"airport_id":"61","name":"Kingston","city":"Kingston","country":"Canada","iata_faa":"YGK","iaco":"CYGK","latitude":"44.225277","longitude":"-76.596944","altitude":"305","zone":"-5","dst":"A"},{"airport_id":"62","name":"La Grande Riviere","city":"La Grande Riviere","country":"Canada","iata_faa":"YGL","iaco":"CYGL","latitude":"53.625278","longitude":"-77.704167","altitude":"639","zone":"-5","dst":"A"},{"airport_id":"63","name":"Gaspe","city":"Gaspe","country":"Canada","iata_faa":"YGP","iaco":"CYGP","latitude":"48.775278","longitude":"-64.478611","altitude":"108","zone":"-5","dst":"A"},{"airport_id":"64","name":"Geraldton Greenstone Regional","city":"Geraldton","country":"Canada","iata_faa":"YGQ","iaco":"CYGQ","latitude":"49.778332","longitude":"-86.939445","altitude":"1144","zone":"-5","dst":"A"},{"airport_id":"65","name":"Iles De La Madeleine","city":"Iles De La Madeleine","country":"Canada","iata_faa":"YGR","iaco":"CYGR","latitude":"47.424721","longitude":"-61.778056","altitude":"35","zone":"-4","dst":"A"},{"airport_id":"66","name":"Hudson Bay","city":"Hudson Bay","country":"Canada","iata_faa":"YHB","iaco":"CYHB","latitude":"52.816666","longitude":"-102.31139","altitude":"1175","zone":"-6","dst":"N"},{"airport_id":"67","name":"Dryden Rgnl","city":"Dryden","country":"Canada","iata_faa":"YHD","iaco":"CYHD","latitude":"49.831667","longitude":"-92.744167","altitude":"1354","zone":"-6","dst":"A"},{"airport_id":"68","name":"Ulukhaktok Holman","city":"Holman Island","country":"Canada","iata_faa":"YHI","iaco":"CYHI","latitude":"70.762778","longitude":"-117.806111","altitude":"117","zone":"-7","dst":"A"},{"airport_id":"69","name":"Gjoa Haven","city":"Gjoa Haven","country":"Canada","iata_faa":"YHK","iaco":"CYHK","latitude":"68.635556","longitude":"-95.849722","altitude":"152","zone":"-6","dst":"A"},{"airport_id":"70","name":"Hamilton","city":"Hamilton","country":"Canada","iata_faa":"YHM","iaco":"CYHM","latitude":"43.173611","longitude":"-79.935","altitude":"780","zone":"-5","dst":"A"},{"airport_id":"71","name":"St Hubert","city":"Montreal","country":"Canada","iata_faa":"YHU","iaco":"CYHU","latitude":"45.5175","longitude":"-73.416944","altitude":"90","zone":"-5","dst":"A"},{"airport_id":"72","name":"Hay River","city":"Hay River","country":"Canada","iata_faa":"YHY","iaco":"CYHY","latitude":"60.839722","longitude":"-115.782778","altitude":"543","zone":"-7","dst":"A"},{"airport_id":"73","name":"Halifax Intl","city":"Halifax","country":"Canada","iata_faa":"YHZ","iaco":"CYHZ","latitude":"44.880833","longitude":"-63.50861","altitude":"477","zone":"-4","dst":"A"},{"airport_id":"74","name":"Atikokan Muni","city":"Atikokan","country":"Canada","iata_faa":"YIB","iaco":"CYIB","latitude":"48.773888","longitude":"-91.638611","altitude":"1408","zone":"-6","dst":"A"},{"airport_id":"75","name":"Pond Inlet","city":"Pond Inlet","country":"Canada","iata_faa":"YIO","iaco":"CYIO","latitude":"72.683334","longitude":"-77.966667","altitude":"181","zone":"-5","dst":"A"},{"airport_id":"76","name":"St Jean","city":"St. Jean","country":"Canada","iata_faa":"YJN","iaco":"CYJN","latitude":"45.294445","longitude":"-73.281111","altitude":"136","zone":"-5","dst":"A"},{"airport_id":"77","name":"Stephenville","city":"Stephenville","country":"Canada","iata_faa":"YJT","iaco":"CYJT","latitude":"48.544167","longitude":"-58.549999","altitude":"80","zone":"-4","dst":"A"},{"airport_id":"78","name":"Kamloops","city":"Kamloops","country":"Canada","iata_faa":"YKA","iaco":"CYKA","latitude":"50.702222","longitude":"-120.444444","altitude":"1133","zone":"-8","dst":"A"},{"airport_id":"79","name":"Waterloo","city":"Waterloo","country":"Canada","iata_faa":"YKF","iaco":"CYKF","latitude":"43.460833","longitude":"-80.378611","altitude":"1054","zone":"-5","dst":"A"},{"airport_id":"80","name":"Schefferville","city":"Schefferville","country":"Canada","iata_faa":"YKL","iaco":"CYKL","latitude":"54.805278","longitude":"-66.805278","altitude":"1709","zone":"-4","dst":"A"},{"airport_id":"81","name":"Kindersley","city":"Kindersley","country":"Canada","iata_faa":"YKY","iaco":"CYKY","latitude":"51.5175","longitude":"-109.180833","altitude":"2277","zone":"-6","dst":"N"},{"airport_id":"82","name":"Buttonville Muni","city":"Toronto","country":"Canada","iata_faa":"YKZ","iaco":"CYKZ","latitude":"43.862221","longitude":"-79.37","altitude":"650","zone":"-5","dst":"A"},{"airport_id":"83","name":"Chapleau","city":"Chapleau","country":"Canada","iata_faa":"YLD","iaco":"CYLD","latitude":"47.82","longitude":"-83.346667","altitude":"1470","zone":"-5","dst":"A"},{"airport_id":"84","name":"Meadow Lake","city":"Meadow Lake","country":"Canada","iata_faa":"YLJ","iaco":"CYLJ","latitude":"54.125278","longitude":"-108.522778","altitude":"1576","zone":"-6","dst":"N"},{"airport_id":"85","name":"Lloydminster","city":"Lloydminster","country":"Canada","iata_faa":"YLL","iaco":"CYLL","latitude":"53.309166","longitude":"-110.0725","altitude":"2193","zone":"-6","dst":"A"},{"airport_id":"86","name":"Alert","city":"Alert","country":"Canada","iata_faa":"YLT","iaco":"CYLT","latitude":"82.517778","longitude":"-62.280556","altitude":"100","zone":"-5","dst":"A"},{"airport_id":"87","name":"Kelowna","city":"Kelowna","country":"Canada","iata_faa":"YLW","iaco":"CYLW","latitude":"49.956112","longitude":"-119.377778","altitude":"1409","zone":"-8","dst":"A"},{"airport_id":"88","name":"Mayo","city":"Mayo","country":"Canada","iata_faa":"YMA","iaco":"CYMA","latitude":"63.616389","longitude":"-135.868333","altitude":"1653","zone":"-8","dst":"A"},{"airport_id":"89","name":"Moose Jaw Air Vice Marshal C M Mcewen","city":"Moose Jaw","country":"Canada","iata_faa":"YMJ","iaco":"CYMJ","latitude":"50.330278","longitude":"-105.559167","altitude":"1892","zone":"-6","dst":"N"},{"airport_id":"90","name":"Fort Mcmurray","city":"Fort Mcmurray","country":"Canada","iata_faa":"YMM","iaco":"CYMM","latitude":"56.653333","longitude":"-111.221944","altitude":"1211","zone":"-7","dst":"A"},{"airport_id":"91","name":"Moosonee","city":"Moosonee","country":"Canada","iata_faa":"YMO","iaco":"CYMO","latitude":"51.291111","longitude":"-80.607778","altitude":"30","zone":"-5","dst":"A"},{"airport_id":"92","name":"Maniwaki","city":"Maniwaki","country":"Canada","iata_faa":"YMW","iaco":"CYMW","latitude":"46.272778","longitude":"-75.990556","altitude":"656","zone":"-5","dst":"A"},{"airport_id":"93","name":"Montreal Intl Mirabel","city":"Montreal","country":"Canada","iata_faa":"YMX","iaco":"CYMX","latitude":"45.681944","longitude":"-74.005278","altitude":"270","zone":"-5","dst":"A"},{"airport_id":"94","name":"Natashquan","city":"Natashquan","country":"Canada","iata_faa":"YNA","iaco":"CYNA","latitude":"50.19","longitude":"-61.789167","altitude":"39","zone":"-4","dst":"A"},{"airport_id":"95","name":"Gatineau","city":"Gatineau","country":"Canada","iata_faa":"YND","iaco":"CYND","latitude":"45.521694","longitude":"-75.563589","altitude":"211","zone":"-5","dst":"A"},{"airport_id":"96","name":"Matagami","city":"Matagami","country":"Canada","iata_faa":"YNM","iaco":"CYNM","latitude":"49.761667","longitude":"-77.802778","altitude":"918","zone":"-5","dst":"A"},{"airport_id":"97","name":"Old Crow","city":"Old Crow","country":"Canada","iata_faa":"YOC","iaco":"CYOC","latitude":"67.570556","longitude":"-139.839167","altitude":"824","zone":"-8","dst":"A"},{"airport_id":"98","name":"Cold Lake","city":"Cold Lake","country":"Canada","iata_faa":"YOD","iaco":"CYOD","latitude":"54.404999","longitude":"-110.279444","altitude":"1775","zone":"-7","dst":"A"},{"airport_id":"99","name":"High Level","city":"High Level","country":"Canada","iata_faa":"YOJ","iaco":"CYOJ","latitude":"58.621389","longitude":"-117.164722","altitude":"1110","zone":"-7","dst":"A"},{"airport_id":"100","name":"Ottawa Macdonald Cartier Intl","city":"Ottawa","country":"Canada","iata_faa":"YOW","iaco":"CYOW","latitude":"45.3225","longitude":"-75.669167","altitude":"374","zone":"-5","dst":"A"},{"airport_id":"101","name":"Prince Albert Glass Field","city":"Prince Albert","country":"Canada","iata_faa":"YPA","iaco":"CYPA","latitude":"53.214167","longitude":"-105.672778","altitude":"1405","zone":"-6","dst":"N"},{"airport_id":"102","name":"Peace River","city":"Peace River","country":"Canada","iata_faa":"YPE","iaco":"CYPE","latitude":"56.226944","longitude":"-117.447222","altitude":"1873","zone":"-7","dst":"A"},{"airport_id":"103","name":"Southport","city":"Portage-la-prairie","country":"Canada","iata_faa":"YPG","iaco":"CYPG","latitude":"49.903056","longitude":"-98.273889","altitude":"885","zone":"-6","dst":"A"},{"airport_id":"105","name":"Pickle Lake","city":"Pickle Lake","country":"Canada","iata_faa":"YPL","iaco":"CYPL","latitude":"51.446388","longitude":"-90.214167","altitude":"1267","zone":"-6","dst":"A"},{"airport_id":"106","name":"Port Menier","city":"Port Menier","country":"Canada","iata_faa":"YPN","iaco":"CYPN","latitude":"49.836389","longitude":"-64.288611","altitude":"167","zone":"-5","dst":"A"},{"airport_id":"107","name":"Peterborough","city":"Peterborough","country":"Canada","iata_faa":"YPQ","iaco":"CYPQ","latitude":"44.23","longitude":"-78.363333","altitude":"628","zone":"-5","dst":"A"},{"airport_id":"108","name":"Prince Rupert","city":"Prince Pupert","country":"Canada","iata_faa":"YPR","iaco":"CYPR","latitude":"54.28611","longitude":"-130.444722","altitude":"116","zone":"-8","dst":"A"},{"airport_id":"109","name":"Fort Chipewyan","city":"Fort Chipewyan","country":"Canada","iata_faa":"YPY","iaco":"CYPY","latitude":"58.767223","longitude":"-111.117222","altitude":"761","zone":"-7","dst":"A"},{"airport_id":"110","name":"Muskoka","city":"Muskoka","country":"Canada","iata_faa":"YQA","iaco":"CYQA","latitude":"44.974722","longitude":"-79.303333","altitude":"925","zone":"-5","dst":"A"},{"airport_id":"111","name":"Quebec Jean Lesage Intl","city":"Quebec","country":"Canada","iata_faa":"YQB","iaco":"CYQB","latitude":"46.791111","longitude":"-71.393333","altitude":"244","zone":"-5","dst":"A"},{"airport_id":"112","name":"Red Deer Regional","city":"Red Deer Industrial","country":"Canada","iata_faa":"YQF","iaco":"CYQF","latitude":"52.182222","longitude":"-113.894444","altitude":"2968","zone":"-7","dst":"A"},{"airport_id":"113","name":"Windsor","city":"Windsor","country":"Canada","iata_faa":"YQG","iaco":"CYQG","latitude":"42.275556","longitude":"-82.955556","altitude":"622","zone":"-5","dst":"A"},{"airport_id":"114","name":"Watson Lake","city":"Watson Lake","country":"Canada","iata_faa":"YQH","iaco":"CYQH","latitude":"60.116389","longitude":"-128.8225","altitude":"2255","zone":"-8","dst":"A"},{"airport_id":"115","name":"Kenora","city":"Kenora","country":"Canada","iata_faa":"YQK","iaco":"CYQK","latitude":"49.788334","longitude":"-94.363056","altitude":"1332","zone":"-6","dst":"A"},{"airport_id":"116","name":"Lethbridge","city":"Lethbridge","country":"Canada","iata_faa":"YQL","iaco":"CYQL","latitude":"49.630278","longitude":"-112.799722","altitude":"3047","zone":"-7","dst":"A"},{"airport_id":"117","name":"Greater Moncton Intl","city":"Moncton","country":"Canada","iata_faa":"YQM","iaco":"CYQM","latitude":"46.112221","longitude":"-64.678611","altitude":"232","zone":"-4","dst":"A"},{"airport_id":"119","name":"Comox","city":"Comox","country":"Canada","iata_faa":"YQQ","iaco":"CYQQ","latitude":"49.710833","longitude":"-124.886667","altitude":"84","zone":"-8","dst":"A"},{"airport_id":"120","name":"Regina Intl","city":"Regina","country":"Canada","iata_faa":"YQR","iaco":"CYQR","latitude":"50.431944","longitude":"-104.665833","altitude":"1894","zone":"-6","dst":"N"},{"airport_id":"121","name":"Thunder Bay","city":"Thunder Bay","country":"Canada","iata_faa":"YQT","iaco":"CYQT","latitude":"48.371944","longitude":"-89.323889","altitude":"653","zone":"-5","dst":"A"},{"airport_id":"122","name":"Grande Prairie","city":"Grande Prairie","country":"Canada","iata_faa":"YQU","iaco":"CYQU","latitude":"55.179722","longitude":"-118.885","altitude":"2195","zone":"-7","dst":"A"},{"airport_id":"123","name":"Yorkton Muni","city":"Yorkton","country":"Canada","iata_faa":"YQV","iaco":"CYQV","latitude":"51.264721","longitude":"-102.461667","altitude":"1635","zone":"-6","dst":"N"},{"airport_id":"124","name":"North Battleford","city":"North Battleford","country":"Canada","iata_faa":"YQW","iaco":"CYQW","latitude":"52.769167","longitude":"-108.24361","altitude":"1799","zone":"-6","dst":"N"},{"airport_id":"125","name":"Gander Intl","city":"Gander","country":"Canada","iata_faa":"YQX","iaco":"CYQX","latitude":"48.936944","longitude":"-54.568056","altitude":"496","zone":"-4","dst":"A"},{"airport_id":"126","name":"Sydney","city":"Sydney","country":"Canada","iata_faa":"YQY","iaco":"CYQY","latitude":"46.161388","longitude":"-60.047779","altitude":"203","zone":"-4","dst":"A"},{"airport_id":"127","name":"Quesnel","city":"Quesnel","country":"Canada","iata_faa":"YQZ","iaco":"CYQZ","latitude":"53.026112","longitude":"-122.510278","altitude":"1789","zone":"-8","dst":"A"},{"airport_id":"128","name":"Resolute Bay","city":"Resolute","country":"Canada","iata_faa":"YRB","iaco":"CYRB","latitude":"74.716944","longitude":"-94.969444","altitude":"215","zone":"-6","dst":"A"},{"airport_id":"129","name":"Riviere Du Loup","city":"Riviere Du Loup","country":"Canada","iata_faa":"YRI","iaco":"CYRI","latitude":"47.764444","longitude":"-69.584722","altitude":"427","zone":"-5","dst":"A"},{"airport_id":"130","name":"Roberval","city":"Roberval","country":"Canada","iata_faa":"YRJ","iaco":"CYRJ","latitude":"48.52","longitude":"-72.265556","altitude":"586","zone":"-5","dst":"A"},{"airport_id":"131","name":"Rocky Mountain House","city":"Rocky Mountain House","country":"Canada","iata_faa":"YRM","iaco":"CYRM","latitude":"52.429722","longitude":"-114.904167","altitude":"3244","zone":"-7","dst":"A"},{"airport_id":"132","name":"Rankin Inlet","city":"Rankin Inlet","country":"Canada","iata_faa":"YRT","iaco":"CYRT","latitude":"62.81139","longitude":"-92.115833","altitude":"94","zone":"-6","dst":"A"},{"airport_id":"133","name":"Sudbury","city":"Sudbury","country":"Canada","iata_faa":"YSB","iaco":"CYSB","latitude":"46.625","longitude":"-80.798889","altitude":"1141","zone":"-5","dst":"A"},{"airport_id":"134","name":"Sherbrooke","city":"Sherbrooke","country":"Canada","iata_faa":"YSC","iaco":"CYSC","latitude":"45.438611","longitude":"-71.691389","altitude":"792","zone":"-5","dst":"A"},{"airport_id":"135","name":"Saint John","city":"St. John","country":"Canada","iata_faa":"YSJ","iaco":"CYSJ","latitude":"45.316111","longitude":"-65.890278","altitude":"357","zone":"-4","dst":"A"},{"airport_id":"136","name":"Fort Smith","city":"Fort Smith","country":"Canada","iata_faa":"YSM","iaco":"CYSM","latitude":"60.020278","longitude":"-111.961944","altitude":"671","zone":"-7","dst":"A"},{"airport_id":"137","name":"Nanisivik","city":"Nanisivik","country":"Canada","iata_faa":"YSR","iaco":"CYSR","latitude":"72.982222","longitude":"-84.613611","altitude":"2106","zone":"-5","dst":"A"},{"airport_id":"138","name":"Summerside","city":"Summerside","country":"Canada","iata_faa":"YSU","iaco":"CYSU","latitude":"46.440556","longitude":"-63.833611","altitude":"56","zone":"-4","dst":"A"},{"airport_id":"139","name":"Sachs Harbour","city":"Sachs Harbour","country":"Canada","iata_faa":"YSY","iaco":"CYSY","latitude":"71.993889","longitude":"-125.2425","altitude":"282","zone":"-7","dst":"A"},{"airport_id":"140","name":"Cape Dorset","city":"Cape Dorset","country":"Canada","iata_faa":"YTE","iaco":"CYTE","latitude":"64.23","longitude":"-76.526667","altitude":"164","zone":"-5","dst":"A"},{"airport_id":"141","name":"Thompson","city":"Thompson","country":"Canada","iata_faa":"YTH","iaco":"CYTH","latitude":"55.801111","longitude":"-97.864166","altitude":"729","zone":"-6","dst":"A"},{"airport_id":"142","name":"Trenton","city":"Trenton","country":"Canada","iata_faa":"YTR","iaco":"CYTR","latitude":"44.118889","longitude":"-77.528056","altitude":"283","zone":"-5","dst":"A"},{"airport_id":"143","name":"Timmins","city":"Timmins","country":"Canada","iata_faa":"YTS","iaco":"CYTS","latitude":"48.569721","longitude":"-81.376667","altitude":"967","zone":"-5","dst":"A"},{"airport_id":"144","name":"City Centre","city":"Toronto","country":"Canada","iata_faa":"YTZ","iaco":"CYTZ","latitude":"43.627499","longitude":"-79.396167","altitude":"251","zone":"-5","dst":"A"},{"airport_id":"145","name":"Tuktoyaktuk","city":"Tuktoyaktuk","country":"Canada","iata_faa":"YUB","iaco":"CYUB","latitude":"69.433334","longitude":"-133.026389","altitude":"15","zone":"-7","dst":"A"},{"airport_id":"146","name":"Pierre Elliott Trudeau Intl","city":"Montreal","country":"Canada","iata_faa":"YUL","iaco":"CYUL","latitude":"45.470556","longitude":"-73.740833","altitude":"118","zone":"-5","dst":"A"},{"airport_id":"147","name":"Repulse Bay","city":"Repulse Bay","country":"Canada","iata_faa":"YUT","iaco":"CYUT","latitude":"66.521389","longitude":"-86.224722","altitude":"80","zone":"-6","dst":"A"},{"airport_id":"148","name":"Hall Beach","city":"Hall Beach","country":"Canada","iata_faa":"YUX","iaco":"CYUX","latitude":"68.776111","longitude":"-81.243611","altitude":"27","zone":"-5","dst":"A"},{"airport_id":"149","name":"Rouyn Noranda","city":"Rouyn","country":"Canada","iata_faa":"YUY","iaco":"CYUY","latitude":"48.206111","longitude":"-78.835556","altitude":"988","zone":"-5","dst":"A"},{"airport_id":"150","name":"La Ronge","city":"La Ronge","country":"Canada","iata_faa":"YVC","iaco":"CYVC","latitude":"55.15139","longitude":"-105.261944","altitude":"1242","zone":"-6","dst":"N"},{"airport_id":"151","name":"Vermilion","city":"Vermillion","country":"Canada","iata_faa":"YVG","iaco":"CYVG","latitude":"53.355833","longitude":"-110.82389","altitude":"2025","zone":"-7","dst":"A"},{"airport_id":"152","name":"Qikiqtarjuaq","city":"Broughton Island","country":"Canada","iata_faa":"YVM","iaco":"CYVM","latitude":"67.545833","longitude":"-64.031389","altitude":"21","zone":"-5","dst":"A"},{"airport_id":"153","name":"Val D Or","city":"Val D'or","country":"Canada","iata_faa":"YVO","iaco":"CYVO","latitude":"48.053333","longitude":"-77.782778","altitude":"1107","zone":"-5","dst":"A"},{"airport_id":"154","name":"Kuujjuaq","city":"Quujjuaq","country":"Canada","iata_faa":"YVP","iaco":"CYVP","latitude":"58.096111","longitude":"-68.426944","altitude":"129","zone":"-5","dst":"A"},{"airport_id":"155","name":"Norman Wells","city":"Norman Wells","country":"Canada","iata_faa":"YVQ","iaco":"CYVQ","latitude":"65.281617","longitude":"-126.798219","altitude":"238","zone":"-7","dst":"A"},{"airport_id":"156","name":"Vancouver Intl","city":"Vancouver","country":"Canada","iata_faa":"YVR","iaco":"CYVR","latitude":"49.193889","longitude":"-123.184444","altitude":"14","zone":"-8","dst":"A"},{"airport_id":"157","name":"Buffalo Narrows","city":"Buffalo Narrows","country":"Canada","iata_faa":"YVT","iaco":"CYVT","latitude":"55.841944","longitude":"-108.4175","altitude":"1444","zone":"-6","dst":"N"},{"airport_id":"158","name":"Wiarton","city":"Wiarton","country":"Canada","iata_faa":"YVV","iaco":"CYVV","latitude":"44.745834","longitude":"-81.107222","altitude":"729","zone":"-5","dst":"A"},{"airport_id":"159","name":"Petawawa","city":"Petawawa","country":"Canada","iata_faa":"YWA","iaco":"CYWA","latitude":"45.952221","longitude":"-77.319168","altitude":"427","zone":"-5","dst":"A"},{"airport_id":"160","name":"Winnipeg Intl","city":"Winnipeg","country":"Canada","iata_faa":"YWG","iaco":"CYWG","latitude":"49.910036","longitude":"-97.239886","altitude":"783","zone":"-6","dst":"A"},{"airport_id":"161","name":"Wabush","city":"Wabush","country":"Canada","iata_faa":"YWK","iaco":"CYWK","latitude":"52.921944","longitude":"-66.864444","altitude":"1808","zone":"-4","dst":"A"},{"airport_id":"162","name":"Williams Lake","city":"Williams Lake","country":"Canada","iata_faa":"YWL","iaco":"CYWL","latitude":"52.183056","longitude":"-122.054167","altitude":"3085","zone":"-8","dst":"A"},{"airport_id":"163","name":"Wrigley","city":"Wrigley","country":"Canada","iata_faa":"YWY","iaco":"CYWY","latitude":"63.209444","longitude":"-123.436667","altitude":"489","zone":"-7","dst":"A"},{"airport_id":"164","name":"Canadian Rockies Intl","city":"Cranbrook","country":"Canada","iata_faa":"YXC","iaco":"CYXC","latitude":"49.612222","longitude":"-115.781944","altitude":"3084","zone":"-7","dst":"A"},{"airport_id":"165","name":"Edmonton City Centre","city":"Edmonton","country":"Canada","iata_faa":"YXD","iaco":"CYXD","latitude":"53.5725","longitude":"-113.520556","altitude":"2200","zone":"-7","dst":"A"},{"airport_id":"166","name":"Saskatoon J G Diefenbaker Intl","city":"Saskatoon","country":"Canada","iata_faa":"YXE","iaco":"CYXE","latitude":"52.170834","longitude":"-106.699722","altitude":"1653","zone":"-6","dst":"N"},{"airport_id":"167","name":"Medicine Hat","city":"Medicine Hat","country":"Canada","iata_faa":"YXH","iaco":"CYXH","latitude":"50.01889","longitude":"-110.720833","altitude":"2352","zone":"-7","dst":"A"},{"airport_id":"168","name":"Fort St John","city":"Fort Saint John","country":"Canada","iata_faa":"YXJ","iaco":"CYXJ","latitude":"56.238056","longitude":"-120.740278","altitude":"2280","zone":"-8","dst":"A"},{"airport_id":"169","name":"Sioux Lookout","city":"Sioux Lookout","country":"Canada","iata_faa":"YXL","iaco":"CYXL","latitude":"50.113889","longitude":"-91.905278","altitude":"1258","zone":"-6","dst":"A"},{"airport_id":"170","name":"Pangnirtung","city":"Pangnirtung","country":"Canada","iata_faa":"YXP","iaco":"CYXP","latitude":"66.145","longitude":"-65.713611","altitude":"75","zone":"-5","dst":"A"},{"airport_id":"171","name":"Timiskaming Rgnl","city":"Earlton","country":"Canada","iata_faa":"YXR","iaco":"CYXR","latitude":"47.695","longitude":"-79.848889","altitude":"798","zone":"-5","dst":"A"},{"airport_id":"172","name":"Prince George","city":"Prince George","country":"Canada","iata_faa":"YXS","iaco":"CYXS","latitude":"53.889444","longitude":"-122.678889","altitude":"2267","zone":"-8","dst":"A"},{"airport_id":"173","name":"Terrace","city":"Terrace","country":"Canada","iata_faa":"YXT","iaco":"CYXT","latitude":"54.468508","longitude":"-128.576219","altitude":"713","zone":"-8","dst":"A"},{"airport_id":"174","name":"London","city":"London","country":"Canada","iata_faa":"YXU","iaco":"CYXU","latitude":"43.033056","longitude":"-81.151111","altitude":"912","zone":"-5","dst":"A"},{"airport_id":"175","name":"Abbotsford","city":"Abbotsford","country":"Canada","iata_faa":"YXX","iaco":"CYXX","latitude":"49.025278","longitude":"-122.360556","altitude":"195","zone":"-8","dst":"A"},{"airport_id":"176","name":"Whitehorse Intl","city":"Whitehorse","country":"Canada","iata_faa":"YXY","iaco":"CYXY","latitude":"60.709553","longitude":"-135.067269","altitude":"2317","zone":"-8","dst":"A"},{"airport_id":"177","name":"North Bay","city":"North Bay","country":"Canada","iata_faa":"YYB","iaco":"CYYB","latitude":"46.363611","longitude":"-79.422778","altitude":"1215","zone":"-5","dst":"A"},{"airport_id":"178","name":"Calgary Intl","city":"Calgary","country":"Canada","iata_faa":"YYC","iaco":"CYYC","latitude":"51.113888","longitude":"-114.020278","altitude":"3557","zone":"-7","dst":"A"},{"airport_id":"179","name":"Smithers","city":"Smithers","country":"Canada","iata_faa":"YYD","iaco":"CYYD","latitude":"54.824722","longitude":"-127.182778","altitude":"1712","zone":"-8","dst":"A"},{"airport_id":"180","name":"Fort Nelson","city":"Fort Nelson","country":"Canada","iata_faa":"YYE","iaco":"CYYE","latitude":"58.836389","longitude":"-122.596944","altitude":"1253","zone":"-8","dst":"A"},{"airport_id":"181","name":"Penticton","city":"Penticton","country":"Canada","iata_faa":"YYF","iaco":"CYYF","latitude":"49.463056","longitude":"-119.602222","altitude":"1129","zone":"-8","dst":"A"},{"airport_id":"182","name":"Charlottetown","city":"Charlottetown","country":"Canada","iata_faa":"YYG","iaco":"CYYG","latitude":"46.290001","longitude":"-63.121111","altitude":"160","zone":"-4","dst":"A"},{"airport_id":"183","name":"Taloyoak","city":"Spence Bay","country":"Canada","iata_faa":"YYH","iaco":"CYYH","latitude":"69.546667","longitude":"-93.576667","altitude":"92","zone":"-6","dst":"A"},{"airport_id":"184","name":"Victoria Intl","city":"Victoria","country":"Canada","iata_faa":"YYJ","iaco":"CYYJ","latitude":"48.646944","longitude":"-123.425833","altitude":"63","zone":"-8","dst":"A"},{"airport_id":"185","name":"Lynn Lake","city":"Lynn Lake","country":"Canada","iata_faa":"YYL","iaco":"CYYL","latitude":"56.863888","longitude":"-101.07611","altitude":"1170","zone":"-6","dst":"A"},{"airport_id":"186","name":"Swift Current","city":"Swift Current","country":"Canada","iata_faa":"YYN","iaco":"CYYN","latitude":"50.291944","longitude":"-107.690556","altitude":"2680","zone":"-6","dst":"N"},{"airport_id":"187","name":"Churchill","city":"Churchill","country":"Canada","iata_faa":"YYQ","iaco":"CYYQ","latitude":"58.739167","longitude":"-94.065","altitude":"94","zone":"-6","dst":"A"},{"airport_id":"188","name":"Goose Bay","city":"Goose Bay","country":"Canada","iata_faa":"YYR","iaco":"CYYR","latitude":"53.319168","longitude":"-60.425833","altitude":"160","zone":"-4","dst":"A"},{"airport_id":"189","name":"St Johns Intl","city":"St. John's","country":"Canada","iata_faa":"YYT","iaco":"CYYT","latitude":"47.61861","longitude":"-52.751945","altitude":"461","zone":"-3.5","dst":"A"},{"airport_id":"190","name":"Kapuskasing","city":"Kapuskasing","country":"Canada","iata_faa":"YYU","iaco":"CYYU","latitude":"49.413889","longitude":"-82.4675","altitude":"743","zone":"-5","dst":"A"},{"airport_id":"191","name":"Armstrong","city":"Armstrong","country":"Canada","iata_faa":"YYW","iaco":"CYYW","latitude":"50.290279","longitude":"-88.909721","altitude":"1058","zone":"-5","dst":"A"},{"airport_id":"192","name":"Mont Joli","city":"Mont Joli","country":"Canada","iata_faa":"YYY","iaco":"CYYY","latitude":"48.608612","longitude":"-68.208056","altitude":"172","zone":"-5","dst":"A"},{"airport_id":"193","name":"Lester B Pearson Intl","city":"Toronto","country":"Canada","iata_faa":"YYZ","iaco":"CYYZ","latitude":"43.677223","longitude":"-79.630556","altitude":"569","zone":"-5","dst":"A"},{"airport_id":"194","name":"Downsview","city":"Toronto","country":"Canada","iata_faa":"YZD","iaco":"CYZD","latitude":"43.7425","longitude":"-79.465556","altitude":"652","zone":"-5","dst":"A"},{"airport_id":"195","name":"Gore Bay Manitoulin","city":"Gore Bay","country":"Canada","iata_faa":"YZE","iaco":"CYZE","latitude":"45.885277","longitude":"-82.567778","altitude":"635","zone":"-5","dst":"A"},{"airport_id":"196","name":"Yellowknife","city":"Yellowknife","country":"Canada","iata_faa":"YZF","iaco":"CYZF","latitude":"62.462778","longitude":"-114.440278","altitude":"675","zone":"-7","dst":"A"},{"airport_id":"197","name":"Slave Lake","city":"Slave Lake","country":"Canada","iata_faa":"YZH","iaco":"CYZH","latitude":"55.293056","longitude":"-114.777222","altitude":"1912","zone":"-7","dst":"A"},{"airport_id":"198","name":"Sandspit","city":"Sandspit","country":"Canada","iata_faa":"YZP","iaco":"CYZP","latitude":"53.254333","longitude":"-131.813833","altitude":"21","zone":"-8","dst":"A"},{"airport_id":"199","name":"Chris Hadfield","city":"Sarnia","country":"Canada","iata_faa":"YZR","iaco":"CYZR","latitude":"42.999444","longitude":"-82.308889","altitude":"594","zone":"-5","dst":"A"},{"airport_id":"200","name":"Port Hardy","city":"Port Hardy","country":"Canada","iata_faa":"YZT","iaco":"CYZT","latitude":"50.680556","longitude":"-127.366667","altitude":"71","zone":"-8","dst":"A"},{"airport_id":"201","name":"Whitecourt","city":"Whitecourt","country":"Canada","iata_faa":"YZU","iaco":"CYZU","latitude":"54.14389","longitude":"-115.786667","altitude":"2567","zone":"-7","dst":"A"},{"airport_id":"202","name":"Sept Iles","city":"Sept-iles","country":"Canada","iata_faa":"YZV","iaco":"CYZV","latitude":"50.223333","longitude":"-66.265556","altitude":"180","zone":"-5","dst":"A"},{"airport_id":"203","name":"Teslin","city":"Teslin","country":"Canada","iata_faa":"YZW","iaco":"CYZW","latitude":"60.172779","longitude":"-132.742778","altitude":"2313","zone":"-8","dst":"A"},{"airport_id":"204","name":"Greenwood","city":"Greenwood","country":"Canada","iata_faa":"YZX","iaco":"CYZX","latitude":"44.984444","longitude":"-64.916944","altitude":"92","zone":"-4","dst":"A"},{"airport_id":"205","name":"Faro","city":"Faro","country":"Canada","iata_faa":"ZFA","iaco":"CZFA","latitude":"62.2075","longitude":"-133.375833","altitude":"2351","zone":"-8","dst":"A"},{"airport_id":"206","name":"Fort Mcpherson","city":"Fort Mcpherson","country":"Canada","iata_faa":"ZFM","iaco":"CZFM","latitude":"67.4075","longitude":"-134.860556","altitude":"116","zone":"-7","dst":"A"},{"airport_id":"209","name":"Soummam","city":"Bejaja","country":"Algeria","iata_faa":"BJA","iaco":"DAAE","latitude":"36.711997","longitude":"5.069922","altitude":"20","zone":"1","dst":"N"},{"airport_id":"210","name":"Houari Boumediene","city":"Algier","country":"Algeria","iata_faa":"ALG","iaco":"DAAG","latitude":"36.691014","longitude":"3.215408","altitude":"82","zone":"1","dst":"N"},{"airport_id":"211","name":"Tiska","city":"Djanet","country":"Algeria","iata_faa":"DJG","iaco":"DAAJ","latitude":"24.292767","longitude":"9.452444","altitude":"3176","zone":"1","dst":"N"},{"airport_id":"214","name":"Illizi Takhamalt","city":"Illizi","country":"Algeria","iata_faa":"VVZ","iaco":"DAAP","latitude":"26.723536","longitude":"8.622653","altitude":"1778","zone":"1","dst":"N"},{"airport_id":"216","name":"Tamanrasset","city":"Tamanrasset","country":"Algeria","iata_faa":"TMR","iaco":"DAAT","latitude":"22.811461","longitude":"5.451075","altitude":"4518","zone":"1","dst":"N"},{"airport_id":"217","name":"Jijel","city":"Jijel","country":"Algeria","iata_faa":"GJL","iaco":"DAAV","latitude":"36.795136","longitude":"5.873608","altitude":"36","zone":"1","dst":"N"},{"airport_id":"220","name":"Annaba","city":"Annaba","country":"Algeria","iata_faa":"AAE","iaco":"DABB","latitude":"36.822225","longitude":"7.809167","altitude":"16","zone":"1","dst":"N"},{"airport_id":"221","name":"Mohamed Boudiaf Intl","city":"Constantine","country":"Algeria","iata_faa":"CZL","iaco":"DABC","latitude":"36.276028","longitude":"6.620386","altitude":"2265","zone":"1","dst":"N"},{"airport_id":"222","name":"Cheikh Larbi Tebessi","city":"Tebessa","country":"Algeria","iata_faa":"TEE","iaco":"DABS","latitude":"35.431611","longitude":"8.120717","altitude":"2661","zone":"1","dst":"N"},{"airport_id":"224","name":"Hassi R Mel","city":"Tilrempt","country":"Algeria","iata_faa":"HRM","iaco":"DAFH","latitude":"32.930431","longitude":"3.311542","altitude":"2540","zone":"1","dst":"N"},{"airport_id":"225","name":"Bou Chekif","city":"Tiaret","country":"Algeria","iata_faa":"TID","iaco":"DAOB","latitude":"35.341136","longitude":"1.463147","altitude":"3245","zone":"1","dst":"N"},{"airport_id":"227","name":"Tindouf","city":"Tindouf","country":"Algeria","iata_faa":"TIN","iaco":"DAOF","latitude":"27.700372","longitude":"-8.167103","altitude":"1453","zone":"1","dst":"N"},{"airport_id":"228","name":"Ech Cheliff","city":"Ech-cheliff","country":"Algeria","iata_faa":"QAS","iaco":"DAOI","latitude":"36.212658","longitude":"1.331775","altitude":"463","zone":"1","dst":"N"},{"airport_id":"229","name":"Tafaraoui","city":"Oran","country":"Algeria","iata_faa":"TAF","iaco":"DAOL","latitude":"35.542444","longitude":"-0.532278","altitude":"367","zone":"1","dst":"N"},{"airport_id":"230","name":"Zenata","city":"Tlemcen","country":"Algeria","iata_faa":"TLM","iaco":"DAON","latitude":"35.016667","longitude":"-1.45","altitude":"814","zone":"1","dst":"N"},{"airport_id":"231","name":"Es Senia","city":"Oran","country":"Algeria","iata_faa":"ORN","iaco":"DAOO","latitude":"35.623858","longitude":"-0.621183","altitude":"295","zone":"1","dst":"N"},{"airport_id":"233","name":"Ghriss","city":"Ghriss","country":"Algeria","iata_faa":"MUW","iaco":"DAOV","latitude":"35.207725","longitude":"0.147142","altitude":"1686","zone":"1","dst":"N"},{"airport_id":"234","name":"Touat Cheikh Sidi Mohamed Belkebir","city":"Adrar","country":"Algeria","iata_faa":"AZR","iaco":"DAUA","latitude":"27.837589","longitude":"-0.186414","altitude":"919","zone":"1","dst":"N"},{"airport_id":"235","name":"Biskra","city":"Biskra","country":"Algeria","iata_faa":"BSK","iaco":"DAUB","latitude":"34.793289","longitude":"5.738231","altitude":"289","zone":"1","dst":"N"},{"airport_id":"236","name":"El Golea","city":"El Golea","country":"Algeria","iata_faa":"ELG","iaco":"DAUE","latitude":"30.571294","longitude":"2.859586","altitude":"1306","zone":"1","dst":"N"},{"airport_id":"237","name":"Noumerat","city":"Ghardaia","country":"Algeria","iata_faa":"GHA","iaco":"DAUG","latitude":"32.384106","longitude":"3.794114","altitude":"1512","zone":"1","dst":"N"},{"airport_id":"238","name":"Oued Irara","city":"Hassi-messaoud","country":"Algeria","iata_faa":"HME","iaco":"DAUH","latitude":"31.672972","longitude":"6.140444","altitude":"463","zone":"1","dst":"N"},{"airport_id":"239","name":"In Salah","city":"In Salah","country":"Algeria","iata_faa":"INZ","iaco":"DAUI","latitude":"27.251022","longitude":"2.512017","altitude":"896","zone":"1","dst":"N"},{"airport_id":"240","name":"Sidi Mahdi","city":"Touggourt","country":"Algeria","iata_faa":"TGR","iaco":"DAUK","latitude":"33.067803","longitude":"6.088672","altitude":"279","zone":"1","dst":"N"},{"airport_id":"241","name":"Laghouat","city":"Laghouat","country":"Algeria","iata_faa":"LOO","iaco":"DAUL","latitude":"33.764383","longitude":"2.928344","altitude":"2510","zone":"1","dst":"N"},{"airport_id":"242","name":"Timimoun","city":"Timimoun","country":"Algeria","iata_faa":"TMX","iaco":"DAUT","latitude":"29.237119","longitude":"0.276033","altitude":"1027","zone":"1","dst":"N"},{"airport_id":"243","name":"Ouargla","city":"Ouargla","country":"Algeria","iata_faa":"OGX","iaco":"DAUU","latitude":"31.917223","longitude":"5.412778","altitude":"492","zone":"1","dst":"N"},{"airport_id":"244","name":"In Amenas","city":"Zarzaitine","country":"Algeria","iata_faa":"IAM","iaco":"DAUZ","latitude":"28.05155","longitude":"9.642911","altitude":"1847","zone":"1","dst":"N"},{"airport_id":"245","name":"Cadjehoun","city":"Cotonou","country":"Benin","iata_faa":"COO","iaco":"DBBB","latitude":"6.357228","longitude":"2.384353","altitude":"19","zone":"1","dst":"N"},{"airport_id":"246","name":"Ouagadougou","city":"Ouagadougou","country":"Burkina Faso","iata_faa":"OUA","iaco":"DFFD","latitude":"12.353194","longitude":"-1.512417","altitude":"1037","zone":"0","dst":"N"},{"airport_id":"247","name":"Bobo Dioulasso","city":"Bobo-dioulasso","country":"Burkina Faso","iata_faa":"BOY","iaco":"DFOO","latitude":"11.160056","longitude":"-4.330969","altitude":"1511","zone":"0","dst":"N"},{"airport_id":"248","name":"Kotoka Intl","city":"Accra","country":"Ghana","iata_faa":"ACC","iaco":"DGAA","latitude":"5.605186","longitude":"-0.166786","altitude":"205","zone":"0","dst":"N"},{"airport_id":"249","name":"Tamale","city":"Tamale","country":"Ghana","iata_faa":"TML","iaco":"DGLE","latitude":"9.557192","longitude":"-0.863214","altitude":"553","zone":"0","dst":"N"},{"airport_id":"251","name":"Sunyani","city":"Sunyani","country":"Ghana","iata_faa":"NYI","iaco":"DGSN","latitude":"7.361828","longitude":"-2.328756","altitude":"1014","zone":"0","dst":"N"},{"airport_id":"252","name":"Takoradi","city":"Takoradi","country":"Ghana","iata_faa":"TKD","iaco":"DGTK","latitude":"4.896056","longitude":"-1.774756","altitude":"21","zone":"0","dst":"N"},{"airport_id":"253","name":"Abidjan Felix Houphouet Boigny Intl","city":"Abidjan","country":"Cote d'Ivoire","iata_faa":"ABJ","iaco":"DIAP","latitude":"5.261386","longitude":"-3.926294","altitude":"21","zone":"0","dst":"N"},{"airport_id":"254","name":"Bouake","city":"Bouake","country":"Cote d'Ivoire","iata_faa":"BYK","iaco":"DIBK","latitude":"7.7388","longitude":"-5.073667","altitude":"1230","zone":"0","dst":"N"},{"airport_id":"255","name":"Daloa","city":"Daloa","country":"Cote d'Ivoire","iata_faa":"DJO","iaco":"DIDL","latitude":"6.792808","longitude":"-6.473189","altitude":"823","zone":"0","dst":"N"},{"airport_id":"256","name":"Korhogo","city":"Korhogo","country":"Cote d'Ivoire","iata_faa":"HGO","iaco":"DIKO","latitude":"9.387183","longitude":"-5.556664","altitude":"1214","zone":"0","dst":"N"},{"airport_id":"257","name":"Man","city":"Man","country":"Cote d'Ivoire","iata_faa":"MJC","iaco":"DIMN","latitude":"7.272069","longitude":"-7.587364","altitude":"1089","zone":"0","dst":"N"},{"airport_id":"258","name":"San Pedro","city":"San Pedro","country":"Cote d'Ivoire","iata_faa":"SPY","iaco":"DISP","latitude":"4.746717","longitude":"-6.660817","altitude":"26","zone":"0","dst":"N"},{"airport_id":"259","name":"Yamoussoukro","city":"Yamoussoukro","country":"Cote d'Ivoire","iata_faa":"ASK","iaco":"DIYO","latitude":"6.903167","longitude":"-5.365581","altitude":"699","zone":"0","dst":"N"},{"airport_id":"260","name":"Nnamdi Azikiwe Intl","city":"Abuja","country":"Nigeria","iata_faa":"ABV","iaco":"DNAA","latitude":"9.006792","longitude":"7.263172","altitude":"1123","zone":"1","dst":"N"},{"airport_id":"261","name":"Akure","city":"Akure","country":"Nigeria","iata_faa":"AKR","iaco":"DNAK","latitude":"7.246739","longitude":"5.301008","altitude":"1100","zone":"1","dst":"N"},{"airport_id":"262","name":"Benin","city":"Benin","country":"Nigeria","iata_faa":"BNI","iaco":"DNBE","latitude":"6.316981","longitude":"5.599503","altitude":"258","zone":"1","dst":"N"},{"airport_id":"263","name":"Calabar","city":"Calabar","country":"Nigeria","iata_faa":"CBQ","iaco":"DNCA","latitude":"4.976019","longitude":"8.347197","altitude":"210","zone":"1","dst":"N"},{"airport_id":"264","name":"Enugu","city":"Enugu","country":"Nigeria","iata_faa":"ENU","iaco":"DNEN","latitude":"6.474272","longitude":"7.561961","altitude":"466","zone":"1","dst":"N"},{"airport_id":"265","name":"Gusau","city":"Gusau","country":"Nigeria","iata_faa":"QUS","iaco":"DNGU","latitude":"12.171667","longitude":"6.696111","altitude":"1520","zone":"1","dst":"N"},{"airport_id":"266","name":"Ibadan","city":"Ibadan","country":"Nigeria","iata_faa":"IBA","iaco":"DNIB","latitude":"7.362458","longitude":"3.978333","altitude":"725","zone":"1","dst":"N"},{"airport_id":"267","name":"Ilorin","city":"Ilorin","country":"Nigeria","iata_faa":"ILR","iaco":"DNIL","latitude":"8.440211","longitude":"4.493919","altitude":"1126","zone":"1","dst":"N"},{"airport_id":"268","name":"Yakubu Gowon","city":"Jos","country":"Nigeria","iata_faa":"JOS","iaco":"DNJO","latitude":"9.639828","longitude":"8.86905","altitude":"4232","zone":"1","dst":"N"},{"airport_id":"269","name":"Kaduna","city":"Kaduna","country":"Nigeria","iata_faa":"KAD","iaco":"DNKA","latitude":"10.696025","longitude":"7.320114","altitude":"2073","zone":"1","dst":"N"},{"airport_id":"270","name":"Mallam Aminu Intl","city":"Kano","country":"Nigeria","iata_faa":"KAN","iaco":"DNKN","latitude":"12.047589","longitude":"8.524622","altitude":"1562","zone":"1","dst":"N"},{"airport_id":"271","name":"Maiduguri","city":"Maiduguri","country":"Nigeria","iata_faa":"MIU","iaco":"DNMA","latitude":"11.855347","longitude":"13.08095","altitude":"1099","zone":"1","dst":"N"},{"airport_id":"272","name":"Makurdi","city":"Makurdi","country":"Nigeria","iata_faa":"MDI","iaco":"DNMK","latitude":"7.703883","longitude":"8.613939","altitude":"371","zone":"1","dst":"N"},{"airport_id":"273","name":"Murtala Muhammed","city":"Lagos","country":"Nigeria","iata_faa":"LOS","iaco":"DNMM","latitude":"6.577369","longitude":"3.321156","altitude":"135","zone":"1","dst":"N"},{"airport_id":"274","name":"Minna New","city":"Minna","country":"Nigeria","iata_faa":"MXJ","iaco":"DNMN","latitude":"9.652172","longitude":"6.462256","altitude":"834","zone":"1","dst":"N"},{"airport_id":"275","name":"Port Harcourt Intl","city":"Port Hartcourt","country":"Nigeria","iata_faa":"PHC","iaco":"DNPO","latitude":"5.015494","longitude":"6.949594","altitude":"87","zone":"1","dst":"N"},{"airport_id":"276","name":"Sadiq Abubakar Iii Intl","city":"Sokoto","country":"Nigeria","iata_faa":"SKO","iaco":"DNSO","latitude":"12.916322","longitude":"5.207189","altitude":"1010","zone":"1","dst":"N"},{"airport_id":"277","name":"Yola","city":"Yola","country":"Nigeria","iata_faa":"YOL","iaco":"DNYO","latitude":"9.257553","longitude":"12.430422","altitude":"599","zone":"1","dst":"N"},{"airport_id":"278","name":"Zaria","city":"Zaria","country":"Nigeria","iata_faa":"ZAR","iaco":"DNZA","latitude":"11.130192","longitude":"7.685806","altitude":"2170","zone":"1","dst":"N"},{"airport_id":"279","name":"Maradi","city":"Maradi","country":"Niger","iata_faa":"MFQ","iaco":"DRRM","latitude":"13.502531","longitude":"7.126753","altitude":"1240","zone":"1","dst":"N"},{"airport_id":"280","name":"Diori Hamani","city":"Niamey","country":"Niger","iata_faa":"NIM","iaco":"DRRN","latitude":"13.481547","longitude":"2.183614","altitude":"732","zone":"1","dst":"N"},{"airport_id":"281","name":"Tahoua","city":"Tahoua","country":"Niger","iata_faa":"THZ","iaco":"DRRT","latitude":"14.875658","longitude":"5.265358","altitude":"1266","zone":"1","dst":"N"},{"airport_id":"282","name":"Manu Dayak","city":"Agadez","country":"Niger","iata_faa":"AJY","iaco":"DRZA","latitude":"16.965997","longitude":"8.000114","altitude":"1657","zone":"1","dst":"N"},{"airport_id":"285","name":"Zinder","city":"Zinder","country":"Niger","iata_faa":"ZND","iaco":"DRZR","latitude":"13.778997","longitude":"8.983761","altitude":"1516","zone":"1","dst":"N"},{"airport_id":"286","name":"Habib Bourguiba Intl","city":"Monastir","country":"Tunisia","iata_faa":"MIR","iaco":"DTMB","latitude":"35.758056","longitude":"10.754722","altitude":"9","zone":"1","dst":"E"},{"airport_id":"287","name":"Carthage","city":"Tunis","country":"Tunisia","iata_faa":"TUN","iaco":"DTTA","latitude":"36.851033","longitude":"10.227217","altitude":"22","zone":"1","dst":"E"},{"airport_id":"290","name":"Gafsa","city":"Gafsa","country":"Tunisia","iata_faa":"GAF","iaco":"DTTF","latitude":"34.422022","longitude":"8.822503","altitude":"1060","zone":"1","dst":"E"},{"airport_id":"291","name":"Gabes","city":"Gabes","country":"Tunisia","iata_faa":"GAE","iaco":"DTTG","latitude":"33.876919","longitude":"10.103333","altitude":"26","zone":"1","dst":"E"},{"airport_id":"293","name":"Zarzis","city":"Djerba","country":"Tunisia","iata_faa":"DJE","iaco":"DTTJ","latitude":"33.875031","longitude":"10.775461","altitude":"19","zone":"1","dst":"E"},{"airport_id":"294","name":"El Borma","city":"El Borma","country":"Tunisia","iata_faa":"EBM","iaco":"DTTR","latitude":"31.704281","longitude":"9.254619","altitude":"827","zone":"1","dst":"E"},{"airport_id":"295","name":"Thyna","city":"Sfax","country":"Tunisia","iata_faa":"SFA","iaco":"DTTX","latitude":"34.717953","longitude":"10.690972","altitude":"85","zone":"1","dst":"E"},{"airport_id":"296","name":"Nefta","city":"Tozeur","country":"Tunisia","iata_faa":"TOE","iaco":"DTTZ","latitude":"33.939722","longitude":"8.110556","altitude":"287","zone":"1","dst":"E"},{"airport_id":"297","name":"Niamtougou International","city":"Niatougou","country":"Togo","iata_faa":"LRL","iaco":"DXNG","latitude":"9.767333","longitude":"1.09125","altitude":"1515","zone":"1","dst":"N"},{"airport_id":"298","name":"Gnassingbe Eyadema Intl","city":"Lome","country":"Togo","iata_faa":"LFW","iaco":"DXXX","latitude":"6.165611","longitude":"1.254511","altitude":"72","zone":"1","dst":"N"},{"airport_id":"299","name":"Deurne","city":"Antwerp","country":"Belgium","iata_faa":"ANR","iaco":"EBAW","latitude":"51.189444","longitude":"4.460278","altitude":"39","zone":"1","dst":"E"},{"airport_id":"302","name":"Brussels Natl","city":"Brussels","country":"Belgium","iata_faa":"BRU","iaco":"EBBR","latitude":"50.901389","longitude":"4.484444","altitude":"184","zone":"1","dst":"E"},{"airport_id":"304","name":"Brussels South","city":"Charleroi","country":"Belgium","iata_faa":"CRL","iaco":"EBCI","latitude":"50.459197","longitude":"4.453817","altitude":"614","zone":"1","dst":"E"},{"airport_id":"308","name":"Wevelgem","city":"Kortrijk-vevelgem","country":"Belgium","iata_faa":"QKT","iaco":"EBKT","latitude":"50.817222","longitude":"3.204722","altitude":"64","zone":"1","dst":"E"},{"airport_id":"309","name":"Liege","city":"Liege","country":"Belgium","iata_faa":"LGG","iaco":"EBLG","latitude":"50.637417","longitude":"5.443222","altitude":"659","zone":"1","dst":"E"},{"airport_id":"310","name":"Oostende","city":"Ostend","country":"Belgium","iata_faa":"OST","iaco":"EBOS","latitude":"51.198889","longitude":"2.862222","altitude":"13","zone":"1","dst":"E"},{"airport_id":"317","name":"Bautzen","city":"Bautzen","country":"Germany","iata_faa":"BBJ","iaco":"EDAB","latitude":"51.193531","longitude":"14.519747","altitude":"568","zone":"1","dst":"E"},{"airport_id":"318","name":"Altenburg Nobitz","city":"Altenburg","country":"Germany","iata_faa":"AOC","iaco":"EDAC","latitude":"50.981817","longitude":"12.506361","altitude":"640","zone":"1","dst":"E"},{"airport_id":"6891","name":"Putnam County Airport","city":"Greencastle","country":"United States","iata_faa":"4I7","iaco":"","latitude":"39.6335556","longitude":"-86.8138056","altitude":"842","zone":"-5","dst":"U"},{"airport_id":"329","name":"Barth","city":"Barth","country":"Germany","iata_faa":"BBH","iaco":"EDBH","latitude":"54.33754","longitude":"12.699705","altitude":"23","zone":"1","dst":"E"},{"airport_id":"337","name":"Schonefeld","city":"Berlin","country":"Germany","iata_faa":"SXF","iaco":"EDDB","latitude":"52.380001","longitude":"13.5225","altitude":"157","zone":"1","dst":"E"},{"airport_id":"338","name":"Dresden","city":"Dresden","country":"Germany","iata_faa":"DRS","iaco":"EDDC","latitude":"51.132767","longitude":"13.767161","altitude":"755","zone":"1","dst":"E"},{"airport_id":"339","name":"Erfurt","city":"Erfurt","country":"Germany","iata_faa":"ERF","iaco":"EDDE","latitude":"50.979811","longitude":"10.958106","altitude":"1036","zone":"1","dst":"E"},{"airport_id":"340","name":"Frankfurt Main","city":"Frankfurt","country":"Germany","iata_faa":"FRA","iaco":"EDDF","latitude":"50.026421","longitude":"8.543125","altitude":"364","zone":"1","dst":"E"},{"airport_id":"341","name":"Munster Osnabruck","city":"Muenster/osnabrueck","country":"Germany","iata_faa":"FMO","iaco":"EDDG","latitude":"52.134642","longitude":"7.684831","altitude":"160","zone":"1","dst":"E"},{"airport_id":"342","name":"Hamburg","city":"Hamburg","country":"Germany","iata_faa":"HAM","iaco":"EDDH","latitude":"53.630389","longitude":"9.988228","altitude":"53","zone":"1","dst":"E"},{"airport_id":"343","name":"Tempelhof","city":"Berlin","country":"Germany","iata_faa":"THF","iaco":"EDDI","latitude":"52.473025","longitude":"13.403944","altitude":"167","zone":"1","dst":"E"},{"airport_id":"344","name":"Koln Bonn","city":"Cologne","country":"Germany","iata_faa":"CGN","iaco":"EDDK","latitude":"50.865917","longitude":"7.142744","altitude":"302","zone":"1","dst":"E"},{"airport_id":"345","name":"Dusseldorf","city":"Duesseldorf","country":"Germany","iata_faa":"DUS","iaco":"EDDL","latitude":"51.289453","longitude":"6.766775","altitude":"147","zone":"1","dst":"E"},{"airport_id":"346","name":"Franz Josef Strauss","city":"Munich","country":"Germany","iata_faa":"MUC","iaco":"EDDM","latitude":"48.353783","longitude":"11.786086","altitude":"1487","zone":"1","dst":"E"},{"airport_id":"347","name":"Nurnberg","city":"Nuernberg","country":"Germany","iata_faa":"NUE","iaco":"EDDN","latitude":"49.4987","longitude":"11.066897","altitude":"1046","zone":"1","dst":"E"},{"airport_id":"348","name":"Leipzig Halle","city":"Leipzig","country":"Germany","iata_faa":"LEJ","iaco":"EDDP","latitude":"51.432447","longitude":"12.241633","altitude":"465","zone":"1","dst":"E"},{"airport_id":"349","name":"Saarbrucken","city":"Saarbruecken","country":"Germany","iata_faa":"SCN","iaco":"EDDR","latitude":"49.214553","longitude":"7.109508","altitude":"1058","zone":"1","dst":"E"},{"airport_id":"350","name":"Stuttgart","city":"Stuttgart","country":"Germany","iata_faa":"STR","iaco":"EDDS","latitude":"48.689878","longitude":"9.221964","altitude":"1276","zone":"1","dst":"E"},{"airport_id":"351","name":"Tegel","city":"Berlin","country":"Germany","iata_faa":"TXL","iaco":"EDDT","latitude":"52.559686","longitude":"13.287711","altitude":"122","zone":"1","dst":"E"},{"airport_id":"352","name":"Hannover","city":"Hannover","country":"Germany","iata_faa":"HAJ","iaco":"EDDV","latitude":"52.461056","longitude":"9.685078","altitude":"183","zone":"1","dst":"E"},{"airport_id":"353","name":"Neuenland","city":"Bremen","country":"Germany","iata_faa":"BRE","iaco":"EDDW","latitude":"53.0475","longitude":"8.786667","altitude":"14","zone":"1","dst":"E"},{"airport_id":"355","name":"Frankfurt Hahn","city":"Hahn","country":"Germany","iata_faa":"HHN","iaco":"EDFH","latitude":"49.948672","longitude":"7.263892","altitude":"1649","zone":"1","dst":"E"},{"airport_id":"356","name":"Mannheim City","city":"Mannheim","country":"Germany","iata_faa":"MHG","iaco":"EDFM","latitude":"49.472706","longitude":"8.514264","altitude":"309","zone":"1","dst":"E"},{"airport_id":"362","name":"Hamburg Finkenwerder","city":"Hamburg","country":"Germany","iata_faa":"XFW","iaco":"EDHI","latitude":"53.535886","longitude":"9.837025","altitude":"22","zone":"1","dst":"E"},{"airport_id":"363","name":"Kiel Holtenau","city":"Kiel","country":"Germany","iata_faa":"KEL","iaco":"EDHK","latitude":"54.3795","longitude":"10.145167","altitude":"101","zone":"1","dst":"E"},{"airport_id":"364","name":"Lubeck Blankensee","city":"Luebeck","country":"Germany","iata_faa":"LBC","iaco":"EDHL","latitude":"53.805367","longitude":"10.719222","altitude":"53","zone":"1","dst":"E"},{"airport_id":"367","name":"Arnsberg Menden","city":"Arnsberg","country":"Germany","iata_faa":"ZCA","iaco":"EDLA","latitude":"51.483333","longitude":"7.899333","altitude":"794","zone":"1","dst":"E"},{"airport_id":"368","name":"Essen Mulheim","city":"Essen","country":"Germany","iata_faa":"ESS","iaco":"EDLE","latitude":"51.402333","longitude":"6.937333","altitude":"424","zone":"1","dst":"E"},{"airport_id":"370","name":"Monchengladbach","city":"Moenchengladbach","country":"Germany","iata_faa":"MGL","iaco":"EDLN","latitude":"51.230356","longitude":"6.504494","altitude":"125","zone":"1","dst":"E"},{"airport_id":"371","name":"Paderborn Lippstadt","city":"Paderborn","country":"Germany","iata_faa":"PAD","iaco":"EDLP","latitude":"51.614089","longitude":"8.616317","altitude":"699","zone":"1","dst":"E"},{"airport_id":"373","name":"Dortmund","city":"Dortmund","country":"Germany","iata_faa":"DTM","iaco":"EDLW","latitude":"51.518314","longitude":"7.612242","altitude":"425","zone":"1","dst":"E"},{"airport_id":"374","name":"Augsburg","city":"Augsburg","country":"Germany","iata_faa":"AGB","iaco":"EDMA","latitude":"48.425158","longitude":"10.931764","altitude":"1515","zone":"1","dst":"E"},{"airport_id":"378","name":"Oberpfaffenhofen","city":"Oberpfaffenhofen","country":"Germany","iata_faa":"OBF","iaco":"EDMO","latitude":"48.081364","longitude":"11.283067","altitude":"1947","zone":"1","dst":"E"},{"airport_id":"382","name":"Friedrichshafen","city":"Friedrichshafen","country":"Germany","iata_faa":"FDH","iaco":"EDNY","latitude":"47.671317","longitude":"9.511486","altitude":"1367","zone":"1","dst":"E"},{"airport_id":"383","name":"Schwerin Parchim","city":"Parchim","country":"Germany","iata_faa":"SZW","iaco":"EDOP","latitude":"53.426997","longitude":"11.783436","altitude":"166","zone":"1","dst":"E"},{"airport_id":"384","name":"Stendal Borstel","city":"Stendal","country":"Germany","iata_faa":"ZSN","iaco":"EDOV","latitude":"52.627778","longitude":"11.818333","altitude":"184","zone":"1","dst":"E"},{"airport_id":"386","name":"Bayreuth","city":"Bayreuth","country":"Germany","iata_faa":"BYU","iaco":"EDQD","latitude":"49.984428","longitude":"11.638569","altitude":"1601","zone":"1","dst":"E"},{"airport_id":"388","name":"Hof Plauen","city":"Hof","country":"Germany","iata_faa":"HOQ","iaco":"EDQM","latitude":"50.288836","longitude":"11.854919","altitude":"1960","zone":"1","dst":"E"},{"airport_id":"390","name":"Koblenz Winningen","city":"Koblenz","country":"Germany","iata_faa":"ZNV","iaco":"EDRK","latitude":"50.3255","longitude":"7.528667","altitude":"640","zone":"1","dst":"E"},{"airport_id":"391","name":"Trier Fohren","city":"Trier","country":"Germany","iata_faa":"ZQF","iaco":"EDRT","latitude":"49.8635","longitude":"6.788167","altitude":"665","zone":"1","dst":"E"},{"airport_id":"392","name":"Speyer","city":"Speyer","country":"Germany","iata_faa":"ZQC","iaco":"EDRY","latitude":"49.302776","longitude":"8.451195","altitude":"312","zone":"1","dst":"E"},{"airport_id":"394","name":"Donaueschingen Villingen","city":"Donaueschingen","country":"Germany","iata_faa":"ZQL","iaco":"EDTD","latitude":"47.973331","longitude":"8.522223","altitude":"2231","zone":"1","dst":"E"},{"airport_id":"399","name":"Braunschweig Wolfsburg","city":"Braunschweig","country":"Germany","iata_faa":"BWE","iaco":"EDVE","latitude":"52.319167","longitude":"10.556111","altitude":"295","zone":"1","dst":"E"},{"airport_id":"400","name":"Kassel Calden","city":"Kassel","country":"Germany","iata_faa":"KSF","iaco":"EDVK","latitude":"51.408394","longitude":"9.377631","altitude":"908","zone":"1","dst":"E"},{"airport_id":"402","name":"Bremerhaven","city":"Bremerhaven","country":"Germany","iata_faa":"BRV","iaco":"EDWB","latitude":"53.507081","longitude":"8.572878","altitude":"11","zone":"1","dst":"E"},{"airport_id":"403","name":"Emden","city":"Emden","country":"Germany","iata_faa":"EME","iaco":"EDWE","latitude":"53.391186","longitude":"7.227408","altitude":"2","zone":"1","dst":"E"},{"airport_id":"405","name":"Wilhelmshaven Mariensiel","city":"Wilhelmshaven","country":"Germany","iata_faa":"WVN","iaco":"EDWI","latitude":"53.504833","longitude":"8.053333","altitude":"16","zone":"1","dst":"E"},{"airport_id":"406","name":"Borkum","city":"Borkum","country":"Germany","iata_faa":"BMK","iaco":"EDWR","latitude":"53.5955","longitude":"6.709167","altitude":"3","zone":"1","dst":"E"},{"airport_id":"407","name":"Norderney","city":"Norderney","country":"Germany","iata_faa":"NRD","iaco":"EDWY","latitude":"53.706822","longitude":"7.230247","altitude":"6","zone":"1","dst":"E"},{"airport_id":"408","name":"Flensburg Schaferhaus","city":"Flensburg","country":"Germany","iata_faa":"FLF","iaco":"EDXF","latitude":"54.771772","longitude":"9.378214","altitude":"130","zone":"1","dst":"E"},{"airport_id":"410","name":"Westerland Sylt","city":"Westerland","country":"Germany","iata_faa":"GWT","iaco":"EDXW","latitude":"54.91325","longitude":"8.340472","altitude":"51","zone":"1","dst":"E"},{"airport_id":"412","name":"Kardla","city":"Kardla","country":"Estonia","iata_faa":"KDL","iaco":"EEKA","latitude":"58.990756","longitude":"22.830733","altitude":"18","zone":"2","dst":"E"},{"airport_id":"413","name":"Kuressaare","city":"Kuressaare","country":"Estonia","iata_faa":"URE","iaco":"EEKE","latitude":"58.229883","longitude":"22.509494","altitude":"14","zone":"2","dst":"E"},{"airport_id":"414","name":"Parnu","city":"Parnu","country":"Estonia","iata_faa":"EPU","iaco":"EEPU","latitude":"58.419044","longitude":"24.472819","altitude":"47","zone":"2","dst":"E"},{"airport_id":"415","name":"Tallinn","city":"Tallinn-ulemiste International","country":"Estonia","iata_faa":"TLL","iaco":"EETN","latitude":"59.413317","longitude":"24.832844","altitude":"131","zone":"2","dst":"E"},{"airport_id":"416","name":"Tartu","city":"Tartu-ulenurme","country":"Estonia","iata_faa":"TAY","iaco":"EETU","latitude":"58.307461","longitude":"26.690428","altitude":"219","zone":"2","dst":"E"},{"airport_id":"417","name":"Enontekio","city":"Enontekio","country":"Finland","iata_faa":"ENF","iaco":"EFET","latitude":"68.362586","longitude":"23.424322","altitude":"1005","zone":"2","dst":"E"},{"airport_id":"419","name":"Halli","city":"Halli","country":"Finland","iata_faa":"KEV","iaco":"EFHA","latitude":"61.85605","longitude":"24.7866","altitude":"479","zone":"2","dst":"E"},{"airport_id":"420","name":"Helsinki Malmi","city":"Helsinki","country":"Finland","iata_faa":"HEM","iaco":"EFHF","latitude":"60.254558","longitude":"25.042828","altitude":"57","zone":"2","dst":"E"},{"airport_id":"421","name":"Helsinki Vantaa","city":"Helsinki","country":"Finland","iata_faa":"HEL","iaco":"EFHK","latitude":"60.317222","longitude":"24.963333","altitude":"179","zone":"2","dst":"E"},{"airport_id":"428","name":"Ivalo","city":"Ivalo","country":"Finland","iata_faa":"IVL","iaco":"EFIV","latitude":"68.607269","longitude":"27.405328","altitude":"481","zone":"2","dst":"E"},{"airport_id":"429","name":"Joensuu","city":"Joensuu","country":"Finland","iata_faa":"JOE","iaco":"EFJO","latitude":"62.662906","longitude":"29.60755","altitude":"398","zone":"2","dst":"E"},{"airport_id":"430","name":"Jyvaskyla","city":"Jyvaskyla","country":"Finland","iata_faa":"JYV","iaco":"EFJY","latitude":"62.399453","longitude":"25.678253","altitude":"459","zone":"2","dst":"E"},{"airport_id":"431","name":"Kauhava","city":"Kauhava","country":"Finland","iata_faa":"KAU","iaco":"EFKA","latitude":"63.127078","longitude":"23.051442","altitude":"151","zone":"2","dst":"E"},{"airport_id":"432","name":"Kemi Tornio","city":"Kemi","country":"Finland","iata_faa":"KEM","iaco":"EFKE","latitude":"65.781889","longitude":"24.5991","altitude":"61","zone":"2","dst":"E"},{"airport_id":"433","name":"Kajaani","city":"Kajaani","country":"Finland","iata_faa":"KAJ","iaco":"EFKI","latitude":"64.285472","longitude":"27.692414","altitude":"483","zone":"2","dst":"E"},{"airport_id":"435","name":"Kruunupyy","city":"Kruunupyy","country":"Finland","iata_faa":"KOK","iaco":"EFKK","latitude":"63.721172","longitude":"23.143131","altitude":"84","zone":"2","dst":"E"},{"airport_id":"437","name":"Kuusamo","city":"Kuusamo","country":"Finland","iata_faa":"KAO","iaco":"EFKS","latitude":"65.987575","longitude":"29.239381","altitude":"866","zone":"2","dst":"E"},{"airport_id":"438","name":"Kittila","city":"Kittila","country":"Finland","iata_faa":"KTT","iaco":"EFKT","latitude":"67.701022","longitude":"24.84685","altitude":"644","zone":"2","dst":"E"},{"airport_id":"439","name":"Kuopio","city":"Kuopio","country":"Finland","iata_faa":"KUO","iaco":"EFKU","latitude":"63.00715","longitude":"27.797756","altitude":"323","zone":"2","dst":"E"},{"airport_id":"441","name":"Lappeenranta","city":"Lappeenranta","country":"Finland","iata_faa":"LPP","iaco":"EFLP","latitude":"61.044553","longitude":"28.144397","altitude":"349","zone":"2","dst":"E"},{"airport_id":"442","name":"Mariehamn","city":"Mariehamn","country":"Finland","iata_faa":"MHQ","iaco":"EFMA","latitude":"60.122203","longitude":"19.898156","altitude":"17","zone":"1","dst":"E"},{"airport_id":"444","name":"Mikkeli","city":"Mikkeli","country":"Finland","iata_faa":"MIK","iaco":"EFMI","latitude":"61.6866","longitude":"27.201794","altitude":"329","zone":"2","dst":"E"},{"airport_id":"446","name":"Oulu","city":"Oulu","country":"Finland","iata_faa":"OUL","iaco":"EFOU","latitude":"64.930061","longitude":"25.354564","altitude":"47","zone":"2","dst":"E"},{"airport_id":"448","name":"Pori","city":"Pori","country":"Finland","iata_faa":"POR","iaco":"EFPO","latitude":"61.461686","longitude":"21.799983","altitude":"44","zone":"2","dst":"E"},{"airport_id":"453","name":"Rovaniemi","city":"Rovaniemi","country":"Finland","iata_faa":"RVN","iaco":"EFRO","latitude":"66.564822","longitude":"25.830411","altitude":"642","zone":"2","dst":"E"},{"airport_id":"455","name":"Savonlinna","city":"Savonlinna","country":"Finland","iata_faa":"SVL","iaco":"EFSA","latitude":"61.943064","longitude":"28.945136","altitude":"311","zone":"2","dst":"E"},{"airport_id":"457","name":"Sodankyla","city":"Sodankyla","country":"Finland","iata_faa":"SOT","iaco":"EFSO","latitude":"67.395033","longitude":"26.619133","altitude":"602","zone":"2","dst":"E"},{"airport_id":"458","name":"Tampere Pirkkala","city":"Tampere","country":"Finland","iata_faa":"TMP","iaco":"EFTP","latitude":"61.414147","longitude":"23.604392","altitude":"390","zone":"2","dst":"E"},{"airport_id":"460","name":"Turku","city":"Turku","country":"Finland","iata_faa":"TKU","iaco":"EFTU","latitude":"60.514142","longitude":"22.262808","altitude":"161","zone":"2","dst":"E"},{"airport_id":"461","name":"Utti","city":"Utti","country":"Finland","iata_faa":"QVY","iaco":"EFUT","latitude":"60.896394","longitude":"26.938353","altitude":"339","zone":"2","dst":"E"},{"airport_id":"462","name":"Vaasa","city":"Vaasa","country":"Finland","iata_faa":"VAA","iaco":"EFVA","latitude":"63.05065","longitude":"21.762175","altitude":"19","zone":"2","dst":"E"},{"airport_id":"463","name":"Varkaus","city":"Varkaus","country":"Finland","iata_faa":"VRK","iaco":"EFVR","latitude":"62.171111","longitude":"27.868611","altitude":"286","zone":"2","dst":"E"},{"airport_id":"465","name":"Aldergrove","city":"Belfast","country":"United Kingdom","iata_faa":"BFS","iaco":"EGAA","latitude":"54.6575","longitude":"-6.215833","altitude":"268","zone":"0","dst":"E"},{"airport_id":"466","name":"St Angelo","city":"Enniskillen","country":"United Kingdom","iata_faa":"ENK","iaco":"EGAB","latitude":"54.398889","longitude":"-7.651667","altitude":"155","zone":"0","dst":"E"},{"airport_id":"467","name":"City","city":"Belfast","country":"United Kingdom","iata_faa":"BHD","iaco":"EGAC","latitude":"54.618056","longitude":"-5.8725","altitude":"15","zone":"0","dst":"E"},{"airport_id":"468","name":"Londonderry Eglinton","city":"Londonderry","country":"United Kingdom","iata_faa":"LDY","iaco":"EGAE","latitude":"55.042778","longitude":"-7.161111","altitude":"22","zone":"0","dst":"E"},{"airport_id":"469","name":"Birmingham","city":"Birmingham","country":"United Kingdom","iata_faa":"BHX","iaco":"EGBB","latitude":"52.453856","longitude":"-1.748028","altitude":"327","zone":"0","dst":"E"},{"airport_id":"470","name":"Coventry","city":"Coventry","country":"United Kingdom","iata_faa":"CVT","iaco":"EGBE","latitude":"52.369722","longitude":"-1.479722","altitude":"267","zone":"0","dst":"E"},{"airport_id":"472","name":"Gloucestershire","city":"Golouchestershire","country":"United Kingdom","iata_faa":"GLO","iaco":"EGBJ","latitude":"51.894167","longitude":"-2.167222","altitude":"101","zone":"0","dst":"E"},{"airport_id":"478","name":"Manchester","city":"Manchester","country":"United Kingdom","iata_faa":"MAN","iaco":"EGCC","latitude":"53.353744","longitude":"-2.27495","altitude":"257","zone":"0","dst":"E"},{"airport_id":"481","name":"St Mawgan","city":"Newquai","country":"United Kingdom","iata_faa":"NQY","iaco":"EGDG","latitude":"50.440558","longitude":"-4.995408","altitude":"390","zone":"0","dst":"E"},{"airport_id":"482","name":"Lyneham","city":"Lyneham","country":"United Kingdom","iata_faa":"LYE","iaco":"EGDL","latitude":"51.505144","longitude":"-1.993428","altitude":"513","zone":"0","dst":"E"},{"airport_id":"486","name":"Yeovilton","city":"Yeovilton","country":"United Kingdom","iata_faa":"YEO","iaco":"EGDY","latitude":"51.009358","longitude":"-2.638819","altitude":"75","zone":"0","dst":"E"},{"airport_id":"488","name":"Cardiff","city":"Cardiff","country":"United Kingdom","iata_faa":"CWL","iaco":"EGFF","latitude":"51.396667","longitude":"-3.343333","altitude":"220","zone":"0","dst":"E"},{"airport_id":"489","name":"Swansea","city":"Swansea","country":"United Kingdom","iata_faa":"SWS","iaco":"EGFH","latitude":"51.605333","longitude":"-4.067833","altitude":"299","zone":"0","dst":"E"},{"airport_id":"490","name":"Bristol","city":"Bristol","country":"United Kingdom","iata_faa":"BRS","iaco":"EGGD","latitude":"51.382669","longitude":"-2.719089","altitude":"622","zone":"0","dst":"E"},{"airport_id":"491","name":"Liverpool","city":"Liverpool","country":"United Kingdom","iata_faa":"LPL","iaco":"EGGP","latitude":"53.333611","longitude":"-2.849722","altitude":"80","zone":"0","dst":"E"},{"airport_id":"492","name":"Luton","city":"London","country":"United Kingdom","iata_faa":"LTN","iaco":"EGGW","latitude":"51.874722","longitude":"-0.368333","altitude":"526","zone":"0","dst":"E"},{"airport_id":"493","name":"Plymouth","city":"Plymouth","country":"United Kingdom","iata_faa":"PLH","iaco":"EGHD","latitude":"50.422778","longitude":"-4.105833","altitude":"476","zone":"0","dst":"E"},{"airport_id":"494","name":"Bournemouth","city":"Bournemouth","country":"United Kingdom","iata_faa":"BOH","iaco":"EGHH","latitude":"50.78","longitude":"-1.8425","altitude":"38","zone":"0","dst":"E"},{"airport_id":"495","name":"Southampton","city":"Southampton","country":"United Kingdom","iata_faa":"SOU","iaco":"EGHI","latitude":"50.950261","longitude":"-1.356803","altitude":"44","zone":"0","dst":"E"},{"airport_id":"496","name":"Lasham","city":"Lasham","country":"United Kingdom","iata_faa":"QLA","iaco":"EGHL","latitude":"51.187167","longitude":"-1.0335","altitude":"618","zone":"0","dst":"E"},{"airport_id":"497","name":"Alderney","city":"Alderney","country":"Guernsey","iata_faa":"ACI","iaco":"EGJA","latitude":"49.706111","longitude":"-2.214722","altitude":"290","zone":"0","dst":"E"},{"airport_id":"498","name":"Guernsey","city":"Guernsey","country":"Guernsey","iata_faa":"GCI","iaco":"EGJB","latitude":"49.434956","longitude":"-2.601969","altitude":"336","zone":"0","dst":"E"},{"airport_id":"499","name":"Jersey","city":"Jersey","country":"Jersey","iata_faa":"JER","iaco":"EGJJ","latitude":"49.207947","longitude":"-2.195508","altitude":"277","zone":"0","dst":"E"},{"airport_id":"500","name":"Shoreham","city":"Shoreham By Sea","country":"United Kingdom","iata_faa":"ESH","iaco":"EGKA","latitude":"50.835556","longitude":"-0.297222","altitude":"7","zone":"0","dst":"E"},{"airport_id":"501","name":"Biggin Hill","city":"Biggin Hill","country":"United Kingdom","iata_faa":"BQH","iaco":"EGKB","latitude":"51.330833","longitude":"0.0325","altitude":"598","zone":"0","dst":"E"},{"airport_id":"502","name":"Gatwick","city":"London","country":"United Kingdom","iata_faa":"LGW","iaco":"EGKK","latitude":"51.148056","longitude":"-0.190278","altitude":"202","zone":"0","dst":"E"},{"airport_id":"503","name":"City","city":"London","country":"United Kingdom","iata_faa":"LCY","iaco":"EGLC","latitude":"51.505278","longitude":"0.055278","altitude":"19","zone":"0","dst":"E"},{"airport_id":"504","name":"Farnborough","city":"Farnborough","country":"United Kingdom","iata_faa":"FAB","iaco":"EGLF","latitude":"51.275833","longitude":"-0.776333","altitude":"238","zone":"0","dst":"E"},{"airport_id":"506","name":"Blackbushe","city":"Blackbushe","country":"United Kingdom","iata_faa":"BBS","iaco":"EGLK","latitude":"51.323889","longitude":"-0.8475","altitude":"325","zone":"0","dst":"E"},{"airport_id":"507","name":"Heathrow","city":"London","country":"United Kingdom","iata_faa":"LHR","iaco":"EGLL","latitude":"51.4775","longitude":"-0.461389","altitude":"83","zone":"0","dst":"E"},{"airport_id":"508","name":"Southend","city":"Southend","country":"United Kingdom","iata_faa":"SEN","iaco":"EGMC","latitude":"51.571389","longitude":"0.695556","altitude":"49","zone":"0","dst":"E"},{"airport_id":"509","name":"Lydd","city":"Lydd","country":"United Kingdom","iata_faa":"LYX","iaco":"EGMD","latitude":"50.956111","longitude":"0.939167","altitude":"13","zone":"0","dst":"E"},{"airport_id":"510","name":"Manston","city":"Manston","country":"United Kingdom","iata_faa":"MSE","iaco":"EGMH","latitude":"51.342222","longitude":"1.346111","altitude":"178","zone":"0","dst":"E"},{"airport_id":"512","name":"Carlisle","city":"Carlisle","country":"United Kingdom","iata_faa":"CAX","iaco":"EGNC","latitude":"54.9375","longitude":"-2.809167","altitude":"190","zone":"0","dst":"E"},{"airport_id":"514","name":"Blackpool","city":"Blackpool","country":"United Kingdom","iata_faa":"BLK","iaco":"EGNH","latitude":"53.771667","longitude":"-3.028611","altitude":"34","zone":"0","dst":"E"},{"airport_id":"515","name":"Humberside","city":"Humberside","country":"United Kingdom","iata_faa":"HUY","iaco":"EGNJ","latitude":"53.574444","longitude":"-0.350833","altitude":"121","zone":"0","dst":"E"},{"airport_id":"516","name":"Walney Island","city":"Barrow Island","country":"United Kingdom","iata_faa":"BWF","iaco":"EGNL","latitude":"54.131167","longitude":"-3.263667","altitude":"173","zone":"0","dst":"E"},{"airport_id":"517","name":"Leeds Bradford","city":"Leeds","country":"United Kingdom","iata_faa":"LBA","iaco":"EGNM","latitude":"53.865897","longitude":"-1.660569","altitude":"681","zone":"0","dst":"E"},{"airport_id":"519","name":"Hawarden","city":"Hawarden","country":"United Kingdom","iata_faa":"CEG","iaco":"EGNR","latitude":"53.178056","longitude":"-2.977778","altitude":"45","zone":"0","dst":"E"},{"airport_id":"520","name":"Isle Of Man","city":"Isle Of Man","country":"Isle of Man","iata_faa":"IOM","iaco":"EGNS","latitude":"54.083333","longitude":"-4.623889","altitude":"52","zone":"0","dst":"E"},{"airport_id":"521","name":"Newcastle","city":"Newcastle","country":"United Kingdom","iata_faa":"NCL","iaco":"EGNT","latitude":"55.0375","longitude":"-1.691667","altitude":"266","zone":"0","dst":"E"},{"airport_id":"522","name":"Durham Tees Valley Airport","city":"Teesside","country":"United Kingdom","iata_faa":"MME","iaco":"EGNV","latitude":"54.509189","longitude":"-1.429406","altitude":"120","zone":"0","dst":"E"},{"airport_id":"523","name":"Nottingham East Midlands","city":"East Midlands","country":"United Kingdom","iata_faa":"EMA","iaco":"EGNX","latitude":"52.831111","longitude":"-1.328056","altitude":"306","zone":"0","dst":"E"},{"airport_id":"529","name":"Kirkwall","city":"Kirkwall","country":"United Kingdom","iata_faa":"KOI","iaco":"EGPA","latitude":"58.957778","longitude":"-2.905","altitude":"50","zone":"0","dst":"E"},{"airport_id":"530","name":"Sumburgh","city":"Sumburgh","country":"United Kingdom","iata_faa":"LSI","iaco":"EGPB","latitude":"59.878889","longitude":"-1.295556","altitude":"20","zone":"0","dst":"E"},{"airport_id":"531","name":"Wick","city":"Wick","country":"United Kingdom","iata_faa":"WIC","iaco":"EGPC","latitude":"58.458889","longitude":"-3.093056","altitude":"126","zone":"0","dst":"E"},{"airport_id":"532","name":"Dyce","city":"Aberdeen","country":"United Kingdom","iata_faa":"ABZ","iaco":"EGPD","latitude":"57.201944","longitude":"-2.197778","altitude":"215","zone":"0","dst":"E"},{"airport_id":"533","name":"Inverness","city":"Inverness","country":"United Kingdom","iata_faa":"INV","iaco":"EGPE","latitude":"57.5425","longitude":"-4.0475","altitude":"31","zone":"0","dst":"E"},{"airport_id":"534","name":"Glasgow","city":"Glasgow","country":"United Kingdom","iata_faa":"GLA","iaco":"EGPF","latitude":"55.871944","longitude":"-4.433056","altitude":"26","zone":"0","dst":"E"},{"airport_id":"535","name":"Edinburgh","city":"Edinburgh","country":"United Kingdom","iata_faa":"EDI","iaco":"EGPH","latitude":"55.95","longitude":"-3.3725","altitude":"135","zone":"0","dst":"E"},{"airport_id":"536","name":"Islay","city":"Islay","country":"United Kingdom","iata_faa":"ILY","iaco":"EGPI","latitude":"55.681944","longitude":"-6.256667","altitude":"56","zone":"0","dst":"E"},{"airport_id":"537","name":"Prestwick","city":"Prestwick","country":"United Kingdom","iata_faa":"PIK","iaco":"EGPK","latitude":"55.509444","longitude":"-4.586667","altitude":"65","zone":"0","dst":"E"},{"airport_id":"538","name":"Benbecula","city":"Benbecula","country":"United Kingdom","iata_faa":"BEB","iaco":"EGPL","latitude":"57.481111","longitude":"-7.362778","altitude":"19","zone":"0","dst":"E"},{"airport_id":"539","name":"Scatsta","city":"Scatsta","country":"United Kingdom","iata_faa":"SDZ","iaco":"EGPM","latitude":"60.432778","longitude":"-1.296111","altitude":"81","zone":"0","dst":"E"},{"airport_id":"540","name":"Dundee","city":"Dundee","country":"United Kingdom","iata_faa":"DND","iaco":"EGPN","latitude":"56.452499","longitude":"-3.025833","altitude":"17","zone":"0","dst":"E"},{"airport_id":"541","name":"Stornoway","city":"Stornoway","country":"United Kingdom","iata_faa":"SYY","iaco":"EGPO","latitude":"58.215556","longitude":"-6.331111","altitude":"26","zone":"0","dst":"E"},{"airport_id":"542","name":"Tiree","city":"Tiree","country":"United Kingdom","iata_faa":"TRE","iaco":"EGPU","latitude":"56.499167","longitude":"-6.869167","altitude":"38","zone":"0","dst":"E"},{"airport_id":"543","name":"Leuchars","city":"Leuchars","country":"United Kingdom","iata_faa":"ADX","iaco":"EGQL","latitude":"56.372889","longitude":"-2.868444","altitude":"38","zone":"0","dst":"E"},{"airport_id":"544","name":"Lossiemouth","city":"Lossiemouth","country":"United Kingdom","iata_faa":"LMO","iaco":"EGQS","latitude":"57.705214","longitude":"-3.339169","altitude":"42","zone":"0","dst":"E"},{"airport_id":"545","name":"Cambridge","city":"Cambridge","country":"United Kingdom","iata_faa":"CBG","iaco":"EGSC","latitude":"52.205","longitude":"0.175","altitude":"47","zone":"0","dst":"E"},{"airport_id":"547","name":"Norwich","city":"Norwich","country":"United Kingdom","iata_faa":"NWI","iaco":"EGSH","latitude":"52.675833","longitude":"1.282778","altitude":"117","zone":"0","dst":"E"},{"airport_id":"548","name":"Stansted","city":"London","country":"United Kingdom","iata_faa":"STN","iaco":"EGSS","latitude":"51.885","longitude":"0.235","altitude":"348","zone":"0","dst":"E"},{"airport_id":"552","name":"Exeter","city":"Exeter","country":"United Kingdom","iata_faa":"EXT","iaco":"EGTE","latitude":"50.734444","longitude":"-3.413889","altitude":"102","zone":"0","dst":"E"},{"airport_id":"553","name":"Bristol Filton","city":"Bristol","country":"United Kingdom","iata_faa":"FZO","iaco":"EGTG","latitude":"51.519444","longitude":"-2.590833","altitude":"226","zone":"0","dst":"E"},{"airport_id":"554","name":"Kidlington","city":"Oxford","country":"United Kingdom","iata_faa":"OXF","iaco":"EGTK","latitude":"51.836944","longitude":"-1.32","altitude":"270","zone":"0","dst":"E"},{"airport_id":"557","name":"Mildenhall","city":"Mildenhall","country":"United Kingdom","iata_faa":"MHZ","iaco":"EGUN","latitude":"52.361933","longitude":"0.486406","altitude":"33","zone":"0","dst":"E"},{"airport_id":"560","name":"Fairford","city":"Fairford","country":"United Kingdom","iata_faa":"FFD","iaco":"EGVA","latitude":"51.682167","longitude":"-1.790028","altitude":"286","zone":"0","dst":"E"},{"airport_id":"561","name":"Brize Norton","city":"Brize Norton","country":"United Kingdom","iata_faa":"BZZ","iaco":"EGVN","latitude":"51.749964","longitude":"-1.583617","altitude":"288","zone":"0","dst":"E"},{"airport_id":"562","name":"Odiham","city":"Odiham","country":"United Kingdom","iata_faa":"ODH","iaco":"EGVO","latitude":"51.234139","longitude":"-0.942825","altitude":"405","zone":"0","dst":"E"},{"airport_id":"564","name":"Northolt","city":"Northolt","country":"United Kingdom","iata_faa":"NHT","iaco":"EGWU","latitude":"51.553","longitude":"-0.418167","altitude":"124","zone":"0","dst":"E"},{"airport_id":"565","name":"Coningsby","city":"Coningsby","country":"United Kingdom","iata_faa":"QCY","iaco":"EGXC","latitude":"53.093014","longitude":"-0.166014","altitude":"25","zone":"0","dst":"E"},{"airport_id":"569","name":"Honington","city":"Honington","country":"United Kingdom","iata_faa":"BEQ","iaco":"EGXH","latitude":"52.342611","longitude":"0.772939","altitude":"174","zone":"0","dst":"E"},{"airport_id":"574","name":"Waddington","city":"Waddington","country":"United Kingdom","iata_faa":"WTN","iaco":"EGXW","latitude":"53.166167","longitude":"-0.523811","altitude":"231","zone":"0","dst":"E"},{"airport_id":"578","name":"Marham","city":"Marham","country":"United Kingdom","iata_faa":"KNF","iaco":"EGYM","latitude":"52.648353","longitude":"0.550692","altitude":"75","zone":"0","dst":"E"},{"airport_id":"579","name":"Mount Pleasant","city":"Mount Pleasant","country":"Falkland Islands","iata_faa":"MPN","iaco":"EGYP","latitude":"-51.822777","longitude":"-58.447222","altitude":"244","zone":"-4","dst":"U"},{"airport_id":"580","name":"Schiphol","city":"Amsterdam","country":"Netherlands","iata_faa":"AMS","iaco":"EHAM","latitude":"52.308613","longitude":"4.763889","altitude":"-11","zone":"1","dst":"E"},{"airport_id":"582","name":"Maastricht","city":"Maastricht","country":"Netherlands","iata_faa":"MST","iaco":"EHBK","latitude":"50.911658","longitude":"5.770144","altitude":"375","zone":"1","dst":"E"},{"airport_id":"585","name":"Eindhoven","city":"Eindhoven","country":"Netherlands","iata_faa":"EIN","iaco":"EHEH","latitude":"51.450139","longitude":"5.374528","altitude":"74","zone":"1","dst":"E"},{"airport_id":"586","name":"Eelde","city":"Groningen","country":"Netherlands","iata_faa":"GRQ","iaco":"EHGG","latitude":"53.11972","longitude":"6.579444","altitude":"17","zone":"1","dst":"E"},{"airport_id":"588","name":"De Kooy","city":"De Kooy","country":"Netherlands","iata_faa":"DHR","iaco":"EHKD","latitude":"52.923353","longitude":"4.780625","altitude":"3","zone":"1","dst":"E"},{"airport_id":"590","name":"Leeuwarden","city":"Leeuwarden","country":"Netherlands","iata_faa":"LWR","iaco":"EHLW","latitude":"53.228611","longitude":"5.760556","altitude":"3","zone":"1","dst":"E"},{"airport_id":"591","name":"Rotterdam","city":"Rotterdam","country":"Netherlands","iata_faa":"RTM","iaco":"EHRD","latitude":"51.956944","longitude":"4.437222","altitude":"-15","zone":"1","dst":"E"},{"airport_id":"592","name":"Soesterberg","city":"Soesterberg","country":"Netherlands","iata_faa":"UTC","iaco":"EHSB","latitude":"52.1273","longitude":"5.27619","altitude":"66","zone":"1","dst":"E"},{"airport_id":"593","name":"Twenthe","city":"Enschede","country":"Netherlands","iata_faa":"ENS","iaco":"EHTW","latitude":"52.27","longitude":"6.874167","altitude":"114","zone":"1","dst":"E"},{"airport_id":"594","name":"Valkenburg","city":"Valkenburg","country":"Netherlands","iata_faa":"LID","iaco":"EHVB","latitude":"52.166139","longitude":"4.417944","altitude":"0","zone":"1","dst":"E"},{"airport_id":"595","name":"Woensdrecht","city":"Woensdrecht","country":"Netherlands","iata_faa":"WOE","iaco":"EHWO","latitude":"51.449092","longitude":"4.342031","altitude":"63","zone":"1","dst":"E"},{"airport_id":"596","name":"Cork","city":"Cork","country":"Ireland","iata_faa":"ORK","iaco":"EICK","latitude":"51.841269","longitude":"-8.491111","altitude":"502","zone":"0","dst":"E"},{"airport_id":"597","name":"Galway","city":"Galway","country":"Ireland","iata_faa":"GWY","iaco":"EICM","latitude":"53.300175","longitude":"-8.941592","altitude":"81","zone":"0","dst":"E"},{"airport_id":"599","name":"Dublin","city":"Dublin","country":"Ireland","iata_faa":"DUB","iaco":"EIDW","latitude":"53.421333","longitude":"-6.270075","altitude":"242","zone":"0","dst":"E"},{"airport_id":"600","name":"Connaught","city":"Connaught","country":"Ireland","iata_faa":"NOC","iaco":"EIKN","latitude":"53.910297","longitude":"-8.818492","altitude":"665","zone":"0","dst":"E"},{"airport_id":"601","name":"Kerry","city":"Kerry","country":"Ireland","iata_faa":"KIR","iaco":"EIKY","latitude":"52.180878","longitude":"-9.523783","altitude":"112","zone":"0","dst":"E"},{"airport_id":"603","name":"Shannon","city":"Shannon","country":"Ireland","iata_faa":"SNN","iaco":"EINN","latitude":"52.701978","longitude":"-8.924817","altitude":"46","zone":"0","dst":"E"},{"airport_id":"604","name":"Sligo","city":"Sligo","country":"Ireland","iata_faa":"SXL","iaco":"EISG","latitude":"54.280214","longitude":"-8.599206","altitude":"11","zone":"0","dst":"E"},{"airport_id":"605","name":"Waterford","city":"Waterford","country":"Ireland","iata_faa":"WAT","iaco":"EIWF","latitude":"52.1872","longitude":"-7.086964","altitude":"119","zone":"0","dst":"E"},{"airport_id":"607","name":"Aarhus","city":"Aarhus","country":"Denmark","iata_faa":"AAR","iaco":"EKAH","latitude":"56.300017","longitude":"10.619008","altitude":"82","zone":"1","dst":"E"},{"airport_id":"608","name":"Billund","city":"Billund","country":"Denmark","iata_faa":"BLL","iaco":"EKBI","latitude":"55.740322","longitude":"9.151778","altitude":"247","zone":"1","dst":"E"},{"airport_id":"609","name":"Kastrup","city":"Copenhagen","country":"Denmark","iata_faa":"CPH","iaco":"EKCH","latitude":"55.617917","longitude":"12.655972","altitude":"17","zone":"1","dst":"E"},{"airport_id":"610","name":"Esbjerg","city":"Esbjerg","country":"Denmark","iata_faa":"EBJ","iaco":"EKEB","latitude":"55.525942","longitude":"8.553403","altitude":"97","zone":"1","dst":"E"},{"airport_id":"612","name":"Karup","city":"Karup","country":"Denmark","iata_faa":"KRP","iaco":"EKKA","latitude":"56.297458","longitude":"9.124628","altitude":"170","zone":"1","dst":"E"},{"airport_id":"615","name":"Odense","city":"Odense","country":"Denmark","iata_faa":"ODE","iaco":"EKOD","latitude":"55.476664","longitude":"10.330933","altitude":"56","zone":"1","dst":"E"},{"airport_id":"617","name":"Roskilde","city":"Copenhagen","country":"Denmark","iata_faa":"RKE","iaco":"EKRK","latitude":"55.585567","longitude":"12.131428","altitude":"146","zone":"1","dst":"E"},{"airport_id":"618","name":"Bornholm Ronne","city":"Ronne","country":"Denmark","iata_faa":"RNN","iaco":"EKRN","latitude":"55.063267","longitude":"14.759558","altitude":"52","zone":"1","dst":"E"},{"airport_id":"619","name":"Sonderborg","city":"Soenderborg","country":"Denmark","iata_faa":"SGD","iaco":"EKSB","latitude":"54.964367","longitude":"9.791731","altitude":"24","zone":"1","dst":"E"},{"airport_id":"621","name":"Skrydstrup","city":"Skrydstrup","country":"Denmark","iata_faa":"SKS","iaco":"EKSP","latitude":"55.225553","longitude":"9.263931","altitude":"141","zone":"1","dst":"E"},{"airport_id":"623","name":"Thisted","city":"Thisted","country":"Denmark","iata_faa":"TED","iaco":"EKTS","latitude":"57.0688","longitude":"8.705225","altitude":"23","zone":"1","dst":"E"},{"airport_id":"625","name":"Vagar","city":"Vagar","country":"Faroe Islands","iata_faa":"FAE","iaco":"EKVG","latitude":"62.063628","longitude":"-7.277219","altitude":"280","zone":"0","dst":"E"},{"airport_id":"627","name":"Stauning","city":"Stauning","country":"Denmark","iata_faa":"STA","iaco":"EKVJ","latitude":"55.990122","longitude":"8.353906","altitude":"17","zone":"1","dst":"E"},{"airport_id":"628","name":"Aalborg","city":"Aalborg","country":"Denmark","iata_faa":"AAL","iaco":"EKYT","latitude":"57.092789","longitude":"9.849164","altitude":"10","zone":"1","dst":"E"},{"airport_id":"629","name":"Luxembourg","city":"Luxemburg","country":"Luxembourg","iata_faa":"LUX","iaco":"ELLX","latitude":"49.626575","longitude":"6.211517","altitude":"1234","zone":"1","dst":"E"},{"airport_id":"630","name":"Vigra","city":"Alesund","country":"Norway","iata_faa":"AES","iaco":"ENAL","latitude":"62.560372","longitude":"6.110164","altitude":"69","zone":"1","dst":"E"},{"airport_id":"631","name":"Andenes","city":"Andoya","country":"Norway","iata_faa":"ANX","iaco":"ENAN","latitude":"69.2925","longitude":"16.144167","altitude":"43","zone":"1","dst":"E"},{"airport_id":"632","name":"Alta","city":"Alta","country":"Norway","iata_faa":"ALF","iaco":"ENAT","latitude":"69.976111","longitude":"23.371667","altitude":"9","zone":"1","dst":"E"},{"airport_id":"634","name":"Bronnoy","city":"Bronnoysund","country":"Norway","iata_faa":"BNN","iaco":"ENBN","latitude":"65.461111","longitude":"12.2175","altitude":"25","zone":"1","dst":"E"},{"airport_id":"635","name":"Bodo","city":"Bodo","country":"Norway","iata_faa":"BOO","iaco":"ENBO","latitude":"67.269167","longitude":"14.365278","altitude":"42","zone":"1","dst":"E"},{"airport_id":"636","name":"Flesland","city":"Bergen","country":"Norway","iata_faa":"BGO","iaco":"ENBR","latitude":"60.293386","longitude":"5.218142","altitude":"170","zone":"1","dst":"E"},{"airport_id":"637","name":"Batsfjord","city":"Batsfjord","country":"Norway","iata_faa":"BJF","iaco":"ENBS","latitude":"70.600278","longitude":"29.6925","altitude":"490","zone":"1","dst":"E"},{"airport_id":"638","name":"Kjevik","city":"Kristiansand","country":"Norway","iata_faa":"KRS","iaco":"ENCN","latitude":"58.204214","longitude":"8.085369","altitude":"57","zone":"1","dst":"E"},{"airport_id":"640","name":"Bardufoss","city":"Bardufoss","country":"Norway","iata_faa":"BDU","iaco":"ENDU","latitude":"69.055758","longitude":"18.540356","altitude":"252","zone":"1","dst":"E"},{"airport_id":"641","name":"Evenes","city":"Harstad/Narvik","country":"Norway","iata_faa":"EVE","iaco":"ENEV","latitude":"68.4913","longitude":"16.678108","altitude":"84","zone":"1","dst":"E"},{"airport_id":"642","name":"Leirin","city":"Fagernes","country":"Norway","iata_faa":"VDB","iaco":"ENFG","latitude":"61.015556","longitude":"9.288056","altitude":"2697","zone":"1","dst":"E"},{"airport_id":"643","name":"Floro","city":"Floro","country":"Norway","iata_faa":"FRO","iaco":"ENFL","latitude":"61.583611","longitude":"5.024722","altitude":"37","zone":"1","dst":"E"},{"airport_id":"644","name":"Gardermoen","city":"Oslo","country":"Norway","iata_faa":"OSL","iaco":"ENGM","latitude":"60.193917","longitude":"11.100361","altitude":"681","zone":"1","dst":"E"},{"airport_id":"645","name":"Karmoy","city":"Haugesund","country":"Norway","iata_faa":"HAU","iaco":"ENHD","latitude":"59.345267","longitude":"5.208364","altitude":"86","zone":"1","dst":"E"},{"airport_id":"646","name":"Hasvik","city":"Hasvik","country":"Norway","iata_faa":"HAA","iaco":"ENHK","latitude":"70.486675","longitude":"22.139744","altitude":"21","zone":"1","dst":"E"},{"airport_id":"647","name":"Kvernberget","city":"Kristiansund","country":"Norway","iata_faa":"KSU","iaco":"ENKB","latitude":"63.111781","longitude":"7.824522","altitude":"204","zone":"1","dst":"E"},{"airport_id":"649","name":"Hoybuktmoen","city":"Kirkenes","country":"Norway","iata_faa":"KKN","iaco":"ENKR","latitude":"69.725781","longitude":"29.891295","altitude":"283","zone":"1","dst":"E"},{"airport_id":"650","name":"Lista","city":"Farsund","country":"Norway","iata_faa":"FAN","iaco":"ENLI","latitude":"58.099486","longitude":"6.62605","altitude":"29","zone":"1","dst":"E"},{"airport_id":"651","name":"Aro","city":"Molde","country":"Norway","iata_faa":"MOL","iaco":"ENML","latitude":"62.744722","longitude":"7.2625","altitude":"10","zone":"1","dst":"E"},{"airport_id":"652","name":"Kjaerstad","city":"Mosjoen","country":"Norway","iata_faa":"MJF","iaco":"ENMS","latitude":"65.783997","longitude":"13.214914","altitude":"237","zone":"1","dst":"E"},{"airport_id":"653","name":"Banak","city":"Lakselv","country":"Norway","iata_faa":"LKL","iaco":"ENNA","latitude":"70.068814","longitude":"24.973489","altitude":"25","zone":"1","dst":"E"},{"airport_id":"655","name":"Orland","city":"Orland","country":"Norway","iata_faa":"OLA","iaco":"ENOL","latitude":"63.698908","longitude":"9.604003","altitude":"28","zone":"1","dst":"E"},{"airport_id":"656","name":"Roros","city":"Roros","country":"Norway","iata_faa":"RRS","iaco":"ENRO","latitude":"62.578411","longitude":"11.342347","altitude":"2054","zone":"1","dst":"E"},{"airport_id":"657","name":"Moss","city":"Rygge","country":"Norway","iata_faa":"RYG","iaco":"ENRY","latitude":"59.378933","longitude":"10.785389","altitude":"174","zone":"1","dst":"E"},{"airport_id":"658","name":"Longyear","city":"Svalbard","country":"Norway","iata_faa":"LYR","iaco":"ENSB","latitude":"78.246111","longitude":"15.465556","altitude":"88","zone":"1","dst":"E"},{"airport_id":"659","name":"Geiteryggen","city":"Skien","country":"Norway","iata_faa":"SKE","iaco":"ENSN","latitude":"59.185","longitude":"9.566944","altitude":"463","zone":"1","dst":"E"},{"airport_id":"660","name":"Sorstokken","city":"Stord","country":"Norway","iata_faa":"SRP","iaco":"ENSO","latitude":"59.791925","longitude":"5.34085","altitude":"160","zone":"1","dst":"E"},{"airport_id":"662","name":"Stokka","city":"Sandnessjoen","country":"Norway","iata_faa":"SSJ","iaco":"ENST","latitude":"65.956828","longitude":"12.468944","altitude":"56","zone":"1","dst":"E"},{"airport_id":"663","name":"Langnes","city":"Tromso","country":"Norway","iata_faa":"TOS","iaco":"ENTC","latitude":"69.683333","longitude":"18.918919","altitude":"31","zone":"1","dst":"E"},{"airport_id":"664","name":"Torp","city":"Sandefjord","country":"Norway","iata_faa":"TRF","iaco":"ENTO","latitude":"59.186703","longitude":"10.258628","altitude":"286","zone":"1","dst":"E"},{"airport_id":"665","name":"Vaernes","city":"Trondheim","country":"Norway","iata_faa":"TRD","iaco":"ENVA","latitude":"63.457556","longitude":"10.92425","altitude":"56","zone":"1","dst":"E"},{"airport_id":"666","name":"Sola","city":"Stavanger","country":"Norway","iata_faa":"SVG","iaco":"ENZV","latitude":"58.876778","longitude":"5.637856","altitude":"29","zone":"1","dst":"E"},